Unnamed: 0,Water System,respondent,num_lsl,pct_lsl,data_source,full_addr,lat,long,tot_num_serv_connects_sdwis,LCR_90thpctile,SDWIS PWS ID,PWSID,sys_name,tot_num_serv_connects,tot_num_sl_w_lead,no_lead_serv_connects,Service Line Material is Unknown - Number of Service Connection,lead_gooseneck_serv_connects,lead_serv_line_serv_connects,"Lead only from Water Main to Property line, Curb or Shut-Off",lead_btwn_shutoff_house,owner_btwn_watermain_shutoff,"Ownership from curb, propertly line, or shut-off to home",e_r_leadportion,e_r_slmat,e_r_lead_gooseneck,E or R - Entire Service Line is Lead from the Water Main to home,e_r_lead_maintoshutoff,e_r_shutofftohouse,e_r_num_serv_connects,e_r_tot_sl_w_lead,conf_rec_no_lead,conf_rec_mat_unk,conf_rec_lead_gooseneck,conf_rec_lead_servline,conf_rec_lead_btwn_watermain_shutoff,conf_rec_lead_btw_shutoff_house,Confidence in Records - Total Number of Service Connection,conf_rec_tot_num_serv_lines_w_lead,_merge
0,Aberdeen Pate Water Company Inc,Yes,No response,Unknown,Unknown,"6124 Hartford Ridge Road, Aurora, IN 47001-9682",38.961643,-84.953909,1875,0.0013,IN5258001,IN5258001,"ABERDEEN PATE WATER COMPANY, INC.",2070.0,,2070.0,,,,,,P,R,E,,,,,,,,5.0,,,,,,,,both
1,Advance Water Works,Yes,0,0%,Estimated,"112 North Main Street, Advance, IN 46102",39.994865,-86.620247,208,Unknown,IN5206001,IN5206001,ADVANCE WATER WORKS,211.0,0.0,211.0,,0.0,0.0,0.0,0.0,M,R,R,,E,E,E,E,R,E,10.0,,10.0,10.0,10.0,10.0,10.0,10.0,both
2,Akron Water Department,Yes,No response,Unknown,Unknown,"206 West Rochester Street, Akron, IN 46910",41.03847,-86.032879,500,Unknown,IN5225001,IN5225001,AKRON WATER DEPARTMENT,481.0,,405.0,76.0,,0.0,,,P,R,E,E,,0,,,E,,8.0,8.0,,10.0,,,8.0,,both
3,Albany Water Department,No,No response,Unknown,Unknown,"210 East State Street, Albany, IN 47320-1235",40.299449,-85.235016,940,Unknown,IN5218001,,,,,,,,,,,,,,,,,,,,,,,,,,,,,left_only
4,Albion Water & Sewer,No,No response,Unknown,Unknown,"P.O. Box 27, Albion, IN 46701-0027",41.395604,-85.424424,912,Unknown,IN5257001,,,,,,,,,,,,,,,,,,,,,,,,,,,,,left_only
5,Alexandria Water Department,Yes,479,23.91%,Estimated,"125 North Wayne Street P.O. Box 149, Alexandria, IN 46001",40.26332,-85.672938,2003,0.0058,IN5248001,IN5248001,ALEXANDRIA WATER DEPARTMENT,2434.0,479.0,1965.0,,459.0,0.0,20.0,0.0,M,R,E and R,,E,E,E,E,R,E,6.0,,5.0,8.0,7.0,8.0,9.0,6.0,both
6,Alfordsville Water Utility,No,No response,Unknown,Unknown,"P.O. Box 119, Montgomery, IN 47558",38.662549,-87.046118,204,Unknown,IN5214001,,,,,,,,,,,,,,,,,,,,,,,,,,,,,left_only
7,Ambia Water Department,No,No response,Unknown,Unknown,"P.O. Box 218, Ambia, IN 47917-0218",40.490036,-87.516964,90,Unknown,IN5204001,,,,,,,,,,,,,,,,,,,,,,,,,,,,,left_only
8,Ancilla Domini (Convent),Yes,No response,Unknown,Unknown,"9601 Union Road, Donaldson, IN 46513-0001",41.337728,-86.445163,5,Unknown,IN5250016,IN5250016,ANCILLA DOMINI (CONVENT),6.0,,6.0,,,,,,P,P,R,,,,,,,,10.0,,,,,,,,both
9,Anderson Township Regional Sewer Dist,Yes,0,0%,Unknown,"P.O. Box 188, Milroy, IN 46156",39.496644,-85.46909,294,Unknown,IN5270003,IN5270003,ANDERSON TOWNSHIP REGIONAL SEWER DIST.,300.0,0.0,200.0,100.0,0.0,0.0,0.0,0.0,P,R,E,E,E,E,E,E,R,0,9.0,9.0,10.0,10.0,10.0,8.0,10.0,8.0,both
10,Anderson Water Department,Yes,6936,32.26%,Estimated and Recorded,"550 Dale Keith Jones Road, Anderson, IN 46011",40.11052,-85.720973,21500,0.0023,IN5248002,IN5248002,ANDERSON WATER DEPARTMENT,27745.0,6936.0,18034.0,2775.0,6243.0,,693.0,,M,R,E and R,E and R,E and R,,E,,R,E and R,4.0,4.0,5.0,,4.0,,7.0,4.0,both
11,Andrews Water Department,No,No response,Unknown,Unknown,"P.O. Box 386, Andrews, IN 46702",40.862545,-85.601646,447,Unknown,IN5235001,,,,,,,,,,,,,,,,,,,,,,,,,,,,,left_only
12,And-Tro Water Authority - District 1 & 2,No,No response,Unknown,Unknown,"P.O. Box 603, Tell City, IN 47586",37.947392,-86.769278,1030,Unknown,IN5262001,,,,,,,,,,,,,,,,,,,,,,,,,,,,,left_only
13,Angola Water Department,Yes,410,13.00%,Estimated,"210 North Public Square, Angola, IN 46703-1960",41.635098,-84.999853,3155,0.008,IN5276001,IN5276001,ANGOLA WATER DEPARTMENT,3010.0,410.0,2000.0,600.0,400.0,10.0,0.0,0.0,R,R,E,E,E,E,E,E,R,E,5.0,7.0,6.0,8.0,1.0,1.0,8.0,5.0,both
14,Anoka Acres Mobile Home Park,No,No response,Unknown,Unknown,"2904 S US Highway 35, Logansport IN 46947",40.723864,-86.286764,81,Unknown,IN5209001,,,,,,,,,,,,,,,,,,,,,,,,,,,,,left_only
15,Apple Valley Utilities Inc,No,No response,Unknown,Unknown,"5940 West Raymond Street, Indianapolis, IN 46241",39.73609,-86.262283,185,Unknown,IN5245001,,,,,,,,,,,,,,,,,,,,,,,,,,,,,left_only
16,Aqua Indiana - Wedgewood Park Water Utility,No,No response,Unknown,Unknown,"6811 Engle Rd, Fort Wayne, IN 46804",41.04037,-85.232577,214,Unknown,IN5271018,,,,,,,,,,,,,,,,,,,,,,,,,,,,,left_only
17,Aqua Indiana Water Company,No,No response,Unknown,Unknown,"5750 Castle Creek Parkway North Drive, Indianapolis, IN 46250",39.916363,-86.070166,460,Unknown,IN5245017,,,,,,,,,,,,,,,,,,,,,,,,,,,,,left_only
18,Arcadia Water Department,Yes,28,4.31%,Estimated,"P.O. Box 578, Arcadia, IN 46030-0578",40.17587,-86.021652,650,Unknown,IN5229001,IN5229001,ARCADIA WATER DEPARTMENT,653.0,28.0,625.0,0.0,28.0,0.0,0.0,0.0,M,R,E,E,E,E,E,E,E,E,8.0,5.0,5.0,10.0,10.0,10.0,10.0,5.0,both
19,Argos Municipal Water Plant,No,No response,Unknown,Unknown,"201 West Walnut Street, Argos, IN 46501",41.235849,-86.247098,740,Unknown,IN5250001,,,,,,,,,,,,,,,,,,,,,,,,,,,,,left_only
20,Arrowhead Mobile Home Park,Yes,No response,Unknown,Unknown,"9837 Gulfstream Court, Fishers, IN 46037",39.937117,-85.960609,47,0.0237,IN5230001,IN5230001,ARROWHEAD MOBILE HOME PARK,50.0,,50.0,,,,,,P,R,R,,,,,,,,10.0,,,,,,,,both
21,Ashley Water Department,Yes,0,0%,Estimated,"403 West Lincoln Street P.O. Box 70, Ashley, IN 46705",41.527998,-85.071786,400,Unknown,IN5276002,IN5276002,ASHLEY WATER DEPARTMENT,400.0,0.0,400.0,0.0,0.0,0.0,0.0,0.0,M,R,R,R,E,E,E,E,E,E,9.0,9.0,9.0,9.0,9.0,9.0,9.0,9.0,both
22,Atlanta Water Department,Yes,0,0%,Recorded,"P.O. Box 133, Atlanta, IN 46031",40.215315,-86.026375,300,Unknown,IN5229002,IN5229002,ATLANTA WATER DEPARTMENT,300.0,0.0,300.0,0.0,0.0,0.0,0.0,0.0,M,R,R,R,R,R,R,R,R,R,10.0,10.0,10.0,10.0,10.0,10.0,10.0,10.0,both
23,Attica Water Utility,No,No response,Unknown,Unknown,"305 East Main Street, Attica, IN 47918",40.29303,-87.246764,1400,Unknown,IN5223001,,,,,,,,,,,,,,,,,,,,,,,,,,,,,left_only
24,Auburn Water Department,Yes,150,2.77%,Estimated,"800 North Street, Auburn, IN 46706",41.373216,-85.069559,5413,0.013,IN5217001,IN5217001,AUBURN WATER DEPARTMENT,5238.0,150.0,5038.0,50.0,,,150.0,,M,R,R,E,,,E,,R,E,8.0,1.0,,,1.0,,8.0,1.0,both
25,Aurora Utilities,Yes,12,0.46%,Estimated,"P.O. Box 120 110 Main Street, Aurora, IN 47001",39.05719,-84.899759,2590,0.0015,IN5215001,IN5215001,AURORA UTILITIES,1924.0,12.0,1884.0,30.0,2.0,10.0,0.0,0.0,M,R,R,E,E,E,E,E,R,E,9.0,7.0,7.0,7.0,9.0,9.0,9.0,9.0,both
26,Autumn Acres Mobile Home Subdivision,No,No response,Unknown,Unknown,"2800 South Andrews Road Lot 47, Yorktown, IN 47396",40.167486,-85.479632,32,Unknown,IN5218028,,,,,,,,,,,,,,,,,,,,,,,,,,,,,left_only
27,Autumn Creek Mobile Home Park,No,No response,Unknown,Unknown,"2501 Chicago Street Suite 4, Valparaiso, IN 46385",41.472644,-87.030529,99,Unknown,IN5246007,,,,,,,,,,,,,,,,,,,,,,,,,,,,,left_only
28,Autumn Grove,No,No response,Unknown,Unknown,"P.O. Box 143, Leesburg, IN 46538",41.33199,-85.849992,23,Unknown,IN5244013,,,,,,,,,,,,,,,,,,,,,,,,,,,,,left_only
29,Avilla Water Department,Yes,No response,Unknown,Unknown,"P.O.  Box 49, Avilla, IN 46710-0049",41.365882,-85.238863,825,Unknown,IN5257002,IN5257002,AVILLA WATER DEPARTMENT,823.0,,540.0,283.0,,,,,M,R,E,E,,,,,R,,8.0,10.0,,,,,10.0,,both
30,B&B Water Project Inc,Yes,0,0%,Estimated,"P.O. Box 7287, Bloomington, IN 47407-7287",39.25,-86.45,1788,0.0001,IN5253001,IN5253001,"B&B WATER PROJECT, INC.",1800.0,0.0,1800.0,0.0,0.0,0.0,0.0,0.0,P,R,E,E,E,E,E,E,R,E,8.0,8.0,8.0,,8.0,,8.0,8.0,both
31,Bainbridge Water Works,Yes,No response,Unknown,Unknown,"201 North Grant Avenue, Bainbridge, IN 46105-9344",39.762233,-86.817696,335,Unknown,IN5267001,IN5267001,BAINBRIDGE WATER WORKS,310.0,,310.0,,,,,,,,R,,,,,,R,,10.0,,,,,,10.0,,both
32,Bargersville Water Department,Yes,0,0%,Unknown,"24 North Main P.O. Box 420, Bargersville, IN 46106-0420",39.521386,-86.168272,13000,0.009,IN5241001,IN5241001,BARGERSVILLE WATER DEPARTMENT,11000.0,0.0,11000.0,0.0,0.0,,0.0,,M,R,E and R,E and R,E and R,,E and R,,R,,10.0,,10.0,,10.0,,10.0,10.0,both
33,Batesville Water Utility,No,No response,Unknown,Unknown,"P.O. Box 97, Batesville, IN 47006",39.298127,-85.224191,2910,Unknown,IN5269001,,,,,,,,,,,,,,,,,,,,,,,,,,,,,left_only
34,Battle Ground Water District,No,No response,Unknown,Unknown,"P.O. Box 303, Battle Ground, IN 47920",40.508369,-86.841676,850,Unknown,IN5279002,,,,,,,,,,,,,,,,,,,,,,,,,,,,,left_only
35,Bbp Water Company,Yes,No response,Unknown,Unknown,"P.O. Box 186 256 South Clay Street, Spencer, IN 47460",39.281968,-86.765401,3800,0.0078,IN5260001,IN5260001,BBP WATER COMPANY,3716.0,,2581.0,1135.0,,,,,P,R,R,R,,,,,,,10.0,5.0,,,,,,,both
36,Bedford City Utilities,Yes,No response,Unknown,Unknown,"1614 L Street, Bedford, IN 47421-3730",38.860165,-86.486821,5855,0.008,IN5247001,IN5247001,BEDFORD CITY UTILITIES,5832.0,,15.0,5817.0,,,,,M,R,R,R,,,,,,,10.0,10.0,,,,,,,both
37,Beechwood Mobile Home Park,No,No response,Unknown,Unknown,"10112 West 50 North, Michigan City, IN 46360",41.61362,-86.896071,43,Unknown,IN5246002,,,,,,,,,,,,,,,,,,,,,,,,,,,,,left_only
38,Ben Mar Chateau,No,No response,Unknown,Unknown,"100 South Taylor Road, Garrett, IN 46738",41.350458,-85.11723,60,Unknown,IN5217002,,,,,,,,,,,,,,,,,,,,,,,,,,,,,left_only
39,Berne Water Department,Yes,134,8.55%,Recorded,"158 West Franklin Street, Berne, IN 46711",40.656404,-84.951093,1568,0.012,IN5201001,IN5201001,BERNE WATER DEPARTMENT,1568.0,134.0,1302.0,0.0,,,134.0,,P,R,R,R,,,R,,R,R,8.0,6.0,,,8.0,,8.0,8.0,both
40,Bicknell Municipal Utilities,Yes,200,13.29%,Estimated,"203 Washington St, Bicknell, IN 47512",38.773856,-87.306442,1505,0.002,IN5242001,IN5242001,BICKNELL MUNICIPAL UTILITIES,1505.0,200.0,,,200.0,0.0,0.0,0.0,,,,,E,R,R,R,E,E,,,1.0,1.0,1.0,1.0,1.0,1.0,both
41,Big Maple Mobile Home Park,No,No response,Unknown,Unknown,"S.R. 37 Woodville Rd West E, Strawtown, IN 46060",40.122718,-85.946149,24,Unknown,IN5229003,,,,,,,,,,,,,,,,,,,,,,,,,,,,,left_only
42,Big Walnut Water Company,Yes,No response,Unknown,Unknown,"P.O. Box 750, Greencastle, IN 46135",39.64449,-86.864732,208,Unknown,IN5267002,IN5267002,BIG WALNUT WATER COMPANY,,,0.0,150.0,0.0,0.0,0.0,0.0,P,R,E,,,,,,,,8.0,8.0,,,,,,,both
43,Birdseye Water System,Yes,0,0%,Recorded,"103 West State Road 64, Birdseye, IN 47513",38.29903,-86.688651,360,Unknown,IN5219001,IN5219001,BIRDSEYE WATER SYSTEM,360.0,0.0,360.0,0.0,0.0,0.0,0.0,0.0,P,R,R,R,R,R,R,R,R,R,10.0,10.0,10.0,10.0,10.0,10.0,10.0,10.0,both
44,Bloomingdale Water Works,No,No response,Unknown,Unknown,"P.O. Box 27 82 South Main Street, Bloomingdale, IN 47832-0206",39.832555,-87.250557,190,Unknown,IN5261001,,,,,,,,,,,,,,,,,,,,,,,,,,,,,left_only
45,Blue Lake Mobile Home Park,No,No response,Unknown,Unknown,"6120 East 500 North, Churubusco IN 46723",41.23582,-85.372481,50,Unknown,IN5292010,,,,,,,,,,,,,,,,,,,,,,,,,,,,,left_only
46,Blue Ridge Mobile Home Park,No,No response,Unknown,Unknown,"6775 U.S. 33, Churubusco IN 46723",41.257772,-85.36041,110,Unknown,IN5292002,,,,,,,,,,,,,,,,,,,,,,,,,,,,,left_only
47,Blue River Estates Mobile Home Park,Yes,0,0%,Estimated,"P.O. Box 17496, Indianapolis, IN 46217",39.661576,-86.185347,50,Unknown,IN5273001,IN5273001,BLUE RIVER ESTATES MOBILE HOME PARK,52.0,0.0,52.0,,0.0,0.0,0.0,0.0,P,P,E,,E,E,E,E,R,E,8.0,,8.0,8.0,8.0,8.0,10.0,8.0,both
48,Blue River Regional Water District,Yes,0,0%,Recorded,"8569 East State Road 64, Milltown, IN 47145",38.357461,-86.297153,800,Unknown,IN5213006,IN5213006,BLUE RIVER REGIONAL WATER DISTRICT,786.0,0.0,786.0,0.0,0.0,0.0,0.0,0.0,P,R,R,R,R,R,R,R,R,R,10.0,10.0,10.0,10.0,10.0,10.0,10.0,10.0,both
49,Bluffs Basin Utility Company,No,No response,Unknown,Unknown,"122 East Fourth Street, Marion, IN 46952",40.557585,-85.658699,15,Unknown,IN5227002,,,,,,,,,,,,,,,,,,,,,,,,,,,,,left_only
50,Bluffton Utilities Water Dept,Yes,1094,25.43%,Estimated,"900 Compromise Lane, Bluffton, IN 46714",40.737109,-85.157246,4302,0.0048,IN5290001,IN5290001,BLUFFTON UTILITIES WATER DEPT,4302.0,1094.0,47.0,3161.0,,,1094.0,,M,R,E,E,E,E,E,E,R,E,8.0,8.0,10.0,10.0,8.0,10.0,10.0,8.0,both
51,Borden Tri-County Region,No,No response,Unknown,Unknown,"P.O. Box 40, Borden, IN 47106",38.466728,-85.945804,3961,Unknown,IN5210002,,,,,,,,,,,,,,,,,,,,,,,,,,,,,left_only
52,Boswell Water Department,No,No response,Unknown,Unknown,"112 North Adams Street P.O. Box 223, Boswell, IN 47921",40.51916,-87.383654,400,Unknown,IN5204002,,,,,,,,,,,,,,,,,,,,,,,,,,,,,left_only
53,Bourbon Water Department,Yes,No response,Unknown,Estimated,"104 East Park Avenue, Bourbon, IN 46504-1528",41.297115,-86.11583,772,Unknown,IN5250002,IN5250002,BOURBON WATER DEPARTMENT,775.0,,109.0,666.0,,0.0,,,M,R,R,R,,E,E,E,R,E,10.0,10.0,,5.0,10.0,10.0,10.0,10.0,both
54,Brazil City Water Works,Yes,70,1.46%,Estimated,"2205 East US Highway 40, Brazil, IN 47834-9313",39.523675,-87.125024,4806,0.0149,IN5211001,IN5211001,BRAZIL CITY WATER WORKS,4650.0,70.0,4480.0,100.0,30.0,20.0,20.0,,P,R,E,E,E,E,E,E,E,E,8.0,6.0,6.0,6.0,6.0,,8.0,6.0,both
55,Bremen Water Department,Yes,No response,Unknown,Unknown,"111 South Center Street, Bremen, IN 46506",41.446236,-86.147114,1810,0.001,IN5250003,IN5250003,BREMEN WATER DEPARTMENT,1797.0,,25.0,1772.0,,,,,M,R,R,,,,,,,,7.0,,,,,,,,both
56,Bremerton Mobile Home Park,No,No response,Unknown,Unknown,"1336 E Elm St, Griffith, IN 46319",41.53042,-87.410057,38,Unknown,IN5245004,,,,,,,,,,,,,,,,,,,,,,,,,,,,,left_only
57,Bristol Mobile Village,No,No response,Unknown,Unknown,"53586 County Road 27, Bristol, IN 46507",41.716605,-85.790839,70,Unknown,IN5220001,,,,,,,,,,,,,,,,,,,,,,,,,,,,,left_only
58,Bristol Water Department,No,No response,Unknown,Unknown,"P.O. Box 902, Bristol, IN 46507",41.721439,-85.817495,667,Unknown,IN5220003,,,,,,,,,,,,,,,,,,,,,,,,,,,,,left_only
59,Brook Water Utility,Yes,0,0%,Unknown,"P.O. Box 182, Brook, IN 47922",40.866426,-87.363637,427,Unknown,IN5256002,IN5256002,BROOK WATER UTILITY,441.0,0.0,441.0,,,,,,P,R,E,,,,,,E,,10.0,,,,,,10.0,,both
60,Brooklyn Water Works,Yes,0,0%,Recorded,"10 East Mill Street P.O. Box 159, Brooklyn, IN 46111-0159",39.53879,-86.369974,570,Unknown,IN5255002,IN5255002,BROOKLYN WATER WORKS,561.0,0.0,561.0,0.0,0.0,0.0,0.0,0.0,M,R,R,R,R,R,R,R,R,R,10.0,10.0,10.0,10.0,10.0,10.0,10.0,10.0,both
61,Brookston Water Department,No,No response,Unknown,Unknown,"P.O. Box 238 Town Hall, Brookston, IN 47923",40.602594,-86.865996,680,Unknown,IN5291002,,,,,,,,,,,,,,,,,,,,,,,,,,,,,left_only
62,Brookville Water Works,Yes,34,2.84%,Estimated,"Town Hall 1020 Franklin Avenue, Brookville, IN 47012",39.426174,-85.010984,1199,Unknown,IN5224001,IN5224001,BROOKVILLE WATER WORKS,1215.0,34.0,1169.0,12.0,20.0,0.0,13.0,1.0,M,R,E,E,E,E,E,R,R,E,7.0,9.0,3.0,9.0,7.0,7.0,9.0,5.0,both
63,Brown County Water Utility,Yes,0,0%,Unknown,"5130 North State Road 135, Morgantown, IN 46160",39.269419,-86.2497,5250,0.0045,IN5207001,IN5207001,BROWN COUNTY WATER UTILITY,5500.0,0.0,3500.0,2000.0,,,,,P,R,E,E,,,,,E,,8.0,8.0,,,,,8.0,,both
64,Brownsburg Water Works,Yes,200,2.22%,Unknown,"61 North Green Street, Brownsburg, IN 46112",39.844136,-86.396312,9000,0,IN5232002,IN5232002,BROWNSBURG WATER WORKS,700.0,200.0,0.0,500.0,200.0,0.0,0.0,0.0,M,R,E,E,E,E,E,E,,,1.0,1.0,1.0,1.0,1.0,1.0,,,both
65,Bruceville Water Utility,No,No response,Unknown,Unknown,"P.O. Box 247, Bruceville, IN 47516",38.759491,-87.415574,225,Unknown,IN5242003,,,,,,,,,,,,,,,,,,,,,,,,,,,,,left_only
66,Buell Properties Dba Trails Edge Apts,No,No response,Unknown,Unknown,"P.O. Box 132 426 South Monroe, Staunton, IN 47881",39.485004,-87.189006,69,Unknown,IN5284022,,,,,,,,,,,,,,,,,,,,,,,,,,,,,left_only
67,Bunker Hill Water Works,Yes,No response,Unknown,Unknown,"P.O. Box 565, Bunker Hill, IN 46914",40.660318,-86.10277,385,Unknown,IN5252003,IN5252003,BUNKER HILL WATER WORKS,,,,,,,,,,,,,,,,,,,,,,,,,,,both
68,Burlington Apartments,Yes,16,84.21%,Unknown,"1410 South Darby, Kokomo, IN 46902",40.47005,-86.163792,19,0.0867,IN5208012,IN5208012,BURLINGTON APARTMENTS,16.0,16.0,16.0,,,,,16.0,M,M,R,,,,,R,,,10.0,,,,,10.0,,,both
69,Burnt Pines Water Association,No,No response,Unknown,Unknown,"2980 West County Road 200 South, North Vernon, IN 47265",38.954649,-85.667403,300,Unknown,IN5240001,,,,,,,,,,,,,,,,,,,,,,,,,,,,,left_only
70,Butler Water Department,Yes,No response,Unknown,Unknown,"141 Willow Street, Butler, IN 46721",41.426572,-84.873809,1014,Unknown,IN5217003,IN5217003,BUTLER WATER DEPARTMENT,2684.0,,,2684.0,,,,,P,R,,,,,,,,,,,,,,,,,both
71,Cade Apartments,No,No response,Unknown,Unknown,"2764 West County Road 400 South, New Castle, IN 47362",39.87738,-85.426821,21,Unknown,IN5230010,,,,,,,,,,,,,,,,,,,,,,,,,,,,,left_only
72,Cambridge City Municipal Water Works,No,No response,Unknown,Unknown,"127 North Foote Street, Cambridge City, IN 47327",39.814312,-85.172035,1050,Unknown,IN5289002,,,,,,,,,,,,,,,,,,,,,,,,,,,,,left_only
73,Camden Water Utility,Yes,0,0%,Estimated,"P.O. Box 47, Camden, IN 46917-0047",40.608649,-86.540001,282,Unknown,IN5208001,IN5208001,CAMDEN WATER UTILITY,285.0,0.0,203.0,82.0,0.0,0.0,0.0,0.0,P,R,E,E,E,E,E,E,R,E,10.0,10.0,10.0,10.0,10.0,10.0,10.0,10.0,both
74,Camp Atterbury,No,No response,Unknown,Unknown,"PO Box 5000 Bldg 232, Edinburgh, IN 46124-5000",39.353888,-85.966788,205,Unknown,IN5241015,,,,,,,,,,,,,,,,,,,,,,,,,,,,,left_only
75,Campbellsburg Water Works,Yes,0,0%,Estimated,"21 West Oak P.O. Box 219, Campbellsburg, IN 47108",38.651141,-86.261766,347,0.018,IN5288001,IN5288001,CAMPBELLSBURG WATER WORKS,347.0,0.0,347.0,0.0,0.0,0.0,0.0,0.0,P,R,R,E,E,E,E,E,R,E,10.0,7.0,10.0,10.0,10.0,10.0,10.0,10.0,both
76,Canaan Utilities,Yes,0,0%,Estimated and Recorded,"P.O. Box 13, Canaan, IN 47224",38.880528,-85.241196,1674,0.005,IN5239001,IN5239001,CANAAN UTILITIES,1790.0,0.0,1790.0,0.0,0.0,0.0,0.0,0.0,P,R,E and R,,E,E and R,R,E,,E and R,10.0,,9.0,10.0,9.0,9.0,,9.0,both
77,Candlelight Development Corp,No,No response,Unknown,Unknown,"3350 West 250 North, West Lafayette, IN 47906",40.452921,-86.968955,86,Unknown,IN5279004,,,,,,,,,,,,,,,,,,,,,,,,,,,,,left_only
78,Cannelton Utilities,No,No response,Unknown,Unknown,"610 WASHINGTON STREET, Cannelton, IN 47520-1244",37.912528,-86.742439,660,Unknown,IN5262002,,,,,,,,,,,,,,,,,,,,,,,,,,,,,left_only
79,Carbon Water Corporation,No,No response,Unknown,Unknown,"1098 East County Road 425 North, Center Point, IN 47840-8351",39.449095,-87.08782,435,Unknown,IN5211002,,,,,,,,,,,,,,,,,,,,,,,,,,,,,left_only
80,Carlisle Water Department,Yes,No response,Unknown,Unknown,"P.O. Box 277, Carlisle, IN 47838",38.962303,-87.402557,450,Unknown,IN5277001,IN5277001,CARLISLE WATER DEPARTMENT,450.0,,,450.0,,,,,U,U,,R,,,,,,,,4.0,,,,,,,both
81,Carmel Clay Water,Yes,0,0%,Unknown,"32 W Main St ste 220, Carmel, IN 46032",39.978618,-86.127931,364,0.0102,IN5229024,IN5229024,CARMEL CLAY WATER,467.0,0.0,467.0,0.0,0.0,0.0,0.0,0.0,M,R,R,,,,,,,,9.0,,,,,,,,both
82,Carmel Water Department,Yes,0,0%,Unknown,"30 W Main St ste 220, Carmel, IN 46032",39.978642,-86.127855,30720,0.0086,IN5229004,IN5229004,CARMEL WATER DEPARTMENT,29382.0,0.0,27044.0,2338.0,0.0,0.0,0.0,0.0,M,R,R,E,,,,,,,9.0,9.0,,,,,,,both
83,Carriage House Estates,No,No response,Unknown,Unknown,"5396 South State Road 15, Wabash, IN 46992",40.739987,-85.753089,40,Unknown,IN5285019,,,,,,,,,,,,,,,,,,,,,,,,,,,,,left_only
84,Carriage Light Mobile Home Park - Lots 39-58,No,No response,Unknown,Unknown,"3839 West Landis Road, Angola, IN 46703",41.667024,-85.064313,20,Unknown,IN5276003,,,,,,,,,,,,,,,,,,,,,,,,,,,,,left_only
85,Carthage Water Department,No,No response,Unknown,Unknown,"3190 West 100 South, New Castle, IN 47362",39.917924,-85.446787,330,Unknown,IN5270001,,,,,,,,,,,,,,,,,,,,,,,,,,,,,left_only
86,Cataract Lake Water Corporation,No,No response,Unknown,Unknown,"P.O. Box 624, Cloverdale, IN 46120",39.514768,-86.793897,1200,Unknown,IN5260002,,,,,,,,,,,,,,,,,,,,,,,,,,,,,left_only
87,Cayuga Water Department,Yes,43,7.49%,Unknown,"1500 West White Oak Road, Cayuga, IN 47928",39.984085,-87.494685,574,Unknown,IN5283002,IN5283002,CAYUGA WATER DEPARTMENT,574.0,43.0,415.0,112.0,43.0,0.0,0.0,0.0,M,R,R,E,E,E,E,E,E,,7.0,5.0,7.0,5.0,5.0,5.0,5.0,,both
88,Cedar Creek Mobile Home Park,Yes,No response,Unknown,Unknown,"17210 County Line Road, Hebron, IN 46341",41.312618,-87.220206,15,Unknown,IN5252022,IN5252022,CEDAR CREEK MOBILE HOME PARK,48.0,,48.0,,,,,,R,R,E and R,,,,,,,,8.0,,,,,,,,both
89,Cedar Gardens Mobile Home Park,No,No response,Unknown,Unknown,"11601 West 126 Avenue Trailer 22, Cedar Lake, IN 46303",41.389104,-87.474598,23,Unknown,IN5245050,,,,,,,,,,,,,,,,,,,,,,,,,,,,,left_only
90,Cedar Lake - Robins Nest,Yes,No response,Unknown,Unknown,"13498 Bluebird Ln, Cedar Lake, IN 46303",41.372923,-87.408878,280,Unknown,IN5245067,IN5245067,CEDAR LAKE - ROBINS NEST,305.0,,305.0,,,,,,M,R,R,,,,,,,,8.0,,,,,,,,both
91,Cedar Lake Bible Conference Grounds,No,No response,Unknown,Unknown,"13701 Lauerman St, Cedar Lake, IN 46303",41.369622,-87.44145,90,Unknown,IN5245055,,,,,,,,,,,,,,,,,,,,,,,,,,,,,left_only
92,Cedar Lake Mobile Home Park,No,No response,Unknown,Unknown,"9001 West 133rd Place, Cedar Lake IN 46303",41.374541,-87.444469,35,Unknown,IN5245005,,,,,,,,,,,,,,,,,,,,,,,,,,,,,left_only
93,Cedar Lake Water Works,Yes,No response,Unknown,Unknown,"8550 Lakeshore Drive, Cedar Lake, IN 46303",41.383493,-87.439459,1211,0.0028,IN5245047,IN5245047,CEDAR LAKE WATER WORKS,1255.0,,1255.0,,,,,,M,R,R,,,,,,,,8.0,,,,,,,,both
94,Center Point Water Works,Yes,10,3.94%,Estimated,"P.O. Box 177, Center Point, IN 47840",39.416986,-87.077236,254,Unknown,IN5211003,IN5211003,CENTER POINT WATER WORKS,250.0,10.0,200.0,40.0,5.0,,5.0,,P,R,E,E,E,E,E,E,E,E,7.0,7.0,5.0,,5.0,,8.0,5.0,both
95,Centerville Water Works,Yes,No response,Unknown,Unknown,"3831 Southwest N Street, Richmond, IN 47374",39.811425,-84.949606,1073,0.0051,IN5289003,IN5289003,CENTERVILLE WATER WORKS,1071.0,,,1071.0,,,,,M,R,,E,,,,,,,,10.0,,,,,,,both
96,Chain O Lakes Correctional Facility,No,No response,Unknown,Unknown,"302 West Washington Street IGCS Rm E334, Indianapolis, IN 46204",39.767985,-86.165241,6,Unknown,IN5257023,,,,,,,,,,,,,,,,,,,,,,,,,,,,,left_only
97,Chalmers Water Works,No,No response,Unknown,Unknown,"P.O. Box 827, Chalmers, IN 47929",40.663093,-86.869457,240,Unknown,IN5291003,,,,,,,,,,,,,,,,,,,,,,,,,,,,,left_only
98,Chandler Water Works Department,Yes,0,0%,Estimated,"101 Constitution Court, Chandler, IN 47610",38.033904,-87.382662,7000,0.0073,IN5287002,IN5287002,CHANDLER WATER WORKS DEPARTMENT,7000.0,0.0,7000.0,0.0,0.0,0.0,0.0,0.0,M,R,R,R,R,R,R,E,E,E,8.0,8.0,8.0,8.0,8.0,9.0,9.0,9.0,both
99,Charlestown Water Department,No,No response,Unknown,Unknown,"304 Main Cross, Charlestown, IN 47111",38.443689,-85.660999,2700,Unknown,IN5210003,,,,,,,,,,,,,,,,,,,,,,,,,,,,,left_only
100,Charlestown/River Ridge,Yes,0,0%,Unknown,"6200 East Highway 62 Bldg. 2501, Jeffersonville, IN 47130",38.444905,-85.609168,66,0.0059,IN5210018,IN5210018,CHARLESTOWN/RIVER RIDGE,82.0,0.0,79.0,3.0,,,,,P,R,E,E,,,,,,,9.0,9.0,,,,,,,both
101,Chesterfield Water Department,No,No response,Unknown,Unknown,"17 Veterans Boulevard P.O. Box 95, Chesterfield, IN 46017",40.112866,-85.599557,1074,Unknown,IN5248004,,,,,,,,,,,,,,,,,,,,,,,,,,,,,left_only
102,Chicagoland Christian Village,No,No response,Unknown,Unknown,"6685 E 117th Ave, Crown Point, IN 46307",41.404195,-87.254875,45,Unknown,IN5245062,,,,,,,,,,,,,,,,,,,,,,,,,,,,,left_only
103,Chrisney Water Department,Yes,0,0%,Unknown,"P.O. Box 26, Chrisney, IN 47611",38.014773,-87.036386,325,Unknown,IN5274001,IN5274001,CHRISNEY WATER DEPARTMENT,358.0,0.0,358.0,,,,,,,,E,,,,,,,,9.0,,,,,,,,both
104,Churubusco Water Department,Yes,No response,Unknown,Estimated,"530 S Main St, Churubusco, IN 46723",41.226272,-85.318085,782,Unknown,IN5292003,IN5292003,CHURUBUSCO WATER DEPARTMENT,785.0,,755.0,30.0,0.0,0.0,0.0,0.0,M,R,E,E,E,E,E,E,R,E,10.0,10.0,9.0,9.0,9.0,9.0,10.0,10.0,both
105,Cicero Water Department,No,No response,Unknown,Unknown,"P.O. Box 391, Cicero, IN 46034",40.123926,-86.013318,2218,Unknown,IN5229005,,,,,,,,,,,,,,,,,,,,,,,,,,,,,left_only
106,Citizens Water - Indianapolis,Yes,23482,7.25%,Estimated and Recorded,"2020 N Meridian St, Indianapolis, IN 46202",39.793951,-86.158245,323911,0.0142,IN5249004,IN5249004,CITIZENS WATER - INDIANAPOLIS,373532.0,23482.0,297818.0,52232.0,,20310.0,2849.0,323.0,R,R,E and R,E and R,E and R,E and R,E and R,E and R,R,E and R,5.0,5.0,5.0,5.0,5.0,5.0,7.0,5.0,both
107,Citizens Water - Morgan,Yes,0,0%,Estimated,"2039 E Morgan St, Martinsville, IN 46151",39.429339,-86.404097,1693,0.004,IN5255019,IN5255019,CITIZENS WATER - MORGAN,2247.0,0.0,2247.0,0.0,0.0,0.0,0.0,0.0,R,R,E,E,E,E,E,E,R,E,8.0,8.0,8.0,8.0,8.0,8.0,8.0,8.0,both
108,Citizens Water Of Westfield LLC,Yes,0,0%,Estimated,"714 E 161st St, Westfield, IN 46074",40.02167,-86.145146,12976,0.0063,IN5229009,IN5229009,"CITIZENS WATER OF WESTFIELD, LLC",13450.0,0.0,13450.0,0.0,0.0,0.0,0.0,0.0,R,R,E,E,E,E,E,E,R,E,6.0,6.0,6.0,6.0,6.0,6.0,8.0,6.0,both
109,City Of Bloomington Utilities,Yes,7000,27.52%,Estimated,"P.O. Box 1216, Bloomington, IN 47402",39.09,-86.47,25432,0.008,IN5253002,IN5253002,CITY OF BLOOMINGTON UTILITIES,25776.0,7000.0,15364.0,10412.0,,3500.0,1750.0,1750.0,M,R,R,R,E,E,E,E,E,E,9.0,7.0,5.0,4.0,2.0,1.0,2.0,2.0,both
110,City Of Georgetown (Illinois),No,No response,Unknown,Unknown,"106 Ferry Street, Cayuga, IN 47928",39.952251,-87.46192,15,Unknown,IN5283013,,,,,,,,,,,,,,,,,,,,,,,,,,,,,left_only
111,City Of Greendale Utilities,Yes,551,29.00%,Estimated,"510 Ridge Avenue, Greendale, IN 47025",39.109552,-84.860813,1900,0.0047,IN5215003,IN5215003,CITY OF GREENDALE UTILITIES,1895.0,551.0,1344.0,0.0,551.0,0.0,0.0,0.0,M,R,E,E,E,E,E,E,R,E,7.0,9.0,7.0,9.0,9.0,9.0,10.0,9.0,both
112,City Of Lawrence Utilities,Yes,0,0%,Recorded,"9201 Harrison Park Court, Indianapolis, IN 46216",39.852262,-86.006178,14500,0.0035,IN5249005,IN5249005,CITY OF LAWRENCE UTILITIES,14933.0,0.0,14933.0,0.0,0.0,0.0,0.0,0.0,R,R,R,R,R,R,R,R,R,R,10.0,10.0,10.0,10.0,10.0,10.0,10.0,10.0,both
113,Clarks Hill Water Works,Yes,0,0%,Unknown,"P.O. Box 146, Clarks Hill, IN 47930",40.246981,-86.725006,280,Unknown,IN5279006,IN5279006,CLARKS HILL WATER WORKS,260.0,0.0,260.0,0.0,0.0,0.0,0.0,0.0,P,R,E,,,,,,R,,10.0,,,,,,10.0,,both
114,Clay City Water Works,No,No response,Unknown,Unknown,"P.O. Box 87, Clay City, IN 47841",39.276161,-87.113012,543,Unknown,IN5211004,,,,,,,,,,,,,,,,,,,,,,,,,,,,,left_only
115,Claypool Water Works,No,No response,Unknown,Unknown,"P.O. Box 6, Claypool, IN 46510",41.129523,-85.880045,168,Unknown,IN5243002,,,,,,,,,,,,,,,,,,,,,,,,,,,,,left_only
116,Clearview Resort,No,No response,Unknown,Unknown,"1200 South 6th Street, Monticello, IN 47960",40.727477,-86.777343,15,Unknown,IN5291006,,,,,,,,,,,,,,,,,,,,,,,,,,,,,left_only
117,Clearwater Village Mobile Home Park,No,No response,Unknown,Unknown,"62430 Locust Rd, South Bend, IN 46614",41.590552,-86.280217,227,Unknown,IN5271012,,,,,,,,,,,,,,,,,,,,,,,,,,,,,left_only
118,Clinton Township Water Company,Yes,0,0%,Estimated,"15495 South Rangeline Road, Clinton, IN 47842-7580",39.658985,-87.464104,840,Unknown,IN5283003,IN5283003,CLINTON TOWNSHIP WATER COMPANY,830.0,0.0,830.0,,0.0,0.0,0.0,0.0,P,R,E,,R,E,R,E,R,E,9.0,,9.0,9.0,8.0,9.0,9.0,8.0,both
119,Clinton Water Utility,Yes,0,0%,Estimated,"259 Vine Street, Clinton, IN 47842",39.660954,-87.39927,1954,0.0145,IN5283004,IN5283004,CLINTON WATER UTILITY,1964.0,0.0,500.0,1464.0,0.0,0.0,0.0,0.0,M,R,E,E,E,E,E,E,R,E,10.0,10.0,1.0,1.0,1.0,1.0,10.0,1.0,both
120,Cloverdale Water Works,No,No response,Unknown,Unknown,"P.O. Box 222, Cloverdale, IN 46120",39.514768,-86.793897,1020,Unknown,IN5267003,,,,,,,,,,,,,,,,,,,,,,,,,,,,,left_only
121,Coachlight Mobile Home Court - Lots 1-18,No,No response,Unknown,Unknown,"3835 West Landis Road, Angola, IN 46703",41.666969,-85.064156,18,Unknown,IN5276033,,,,,,,,,,,,,,,,,,,,,,,,,,,,,left_only
122,Cobus Green Mobile Home Park,No,No response,Unknown,Unknown,"54152 Ash Rd, Osceola, IN 46561",41.708332,-86.061797,349,Unknown,IN5220037,,,,,,,,,,,,,,,,,,,,,,,,,,,,,left_only
123,Colfax Water Company,Yes,0,0%,Estimated,"208 West Main Street P.O. Box 326, Colfax, IN 46035",40.193802,-86.667924,269,Unknown,IN5212001,IN5212001,COLFAX WATER COMPANY,247.0,0.0,247.0,0.0,,0.0,0.0,0.0,M,R,R,E,,E,E,E,R,E,10.0,10.0,,10.0,10.0,10.0,10.0,10.0,both
124,Colonial Mobile Court,No,No response,Unknown,Unknown,"6302 North 400 West, Michigan City, IN 46360",41.698393,-86.778175,59,Unknown,IN5246005,,,,,,,,,,,,,,,,,,,,,,,,,,,,,left_only
125,Columbia City Water Department,Yes,1267,32.42%,Unknown,"920 East Van Buren, Columbia City, IN 46725",41.156811,-85.474818,3908,0.0326,IN5292004,IN5292004,COLUMBIA CITY WATER DEPARTMENT,3818.0,1267.0,2000.0,551.0,,577.0,290.0,400.0,M,R,E,,,E,E,E,,,8.0,,,6.0,5.0,6.0,,,both
126,Columbus Municipal Utility,Yes,2000,14.05%,Unknown,"P.O. Box 1987, Columbus, IN 47202-1987",39.2,-85.92,14230,0.0079,IN5203002,IN5203002,COLUMBUS MUNICIPAL UTILITY,15000.0,2000.0,12000.0,1000.0,2000.0,0.0,0.0,0.0,M,R,E,E,E,,,,,,8.0,,5.0,,,,,,both
127,Connersville Utilities,Yes,350,5.95%,Estimated,"P.O. Box 325, Connersville, IN 47331",39.641159,-85.141075,5883,0.0008,IN5221001,IN5221001,CONNERSVILLE UTILITIES,5920.0,350.0,5570.0,3700.0,335.0,0.0,15.0,0.0,M,R,R,E,E,E,E,E,R,E,10.0,8.0,8.0,8.0,8.0,9.0,10.0,8.0,both
128,Converse Water Works,No,No response,Unknown,Unknown,"4015 West 100 North, Huntington, IN 46750",40.843376,-85.531075,476,Unknown,IN5252006,,,,,,,,,,,,,,,,,,,,,,,,,,,,,left_only
129,Cordry Sweetwater Conservancy District,Yes,0,0%,Unknown,"8377 Cordry Drive, Nineveh, IN 46164",39.31854,-86.115538,1356,0.0031,IN5207004,IN5207004,CORDRY SWEETWATER CONSERVANCY DISTRICT,1348.0,0.0,1248.0,100.0,0.0,0.0,0.0,0.0,P,R,E,E,E,E,R,E,,,8.0,5.0,8.0,9.0,10.0,7.0,,,both
130,Corunna Water Utility,Yes,0,0%,Unknown,"P.O. Box 62, Corunna, IN 46730",41.437272,-85.147193,94,Unknown,IN5217008,IN5217008,CORUNNA WATER UTILITY,100.0,0.0,100.0,,,,,,M,R,R,,,,,,,,8.0,,,,,,,,both
131,Corydon Water Works,No,No response,Unknown,Unknown,"113 North Oak Street, Corydon, IN 47112",38.210999,-86.12753,2300,Unknown,IN5231001,,,,,,,,,,,,,,,,,,,,,,,,,,,,,left_only
132,Country Acres Association,No,No response,Unknown,Unknown,"995 Paradise Lane Lot 28, Decatur, IN 46733",40.805192,-84.955112,38,Unknown,IN5201023,,,,,,,,,,,,,,,,,,,,,,,,,,,,,left_only
133,Country Acres Mobile Home Park,Yes,No response,Unknown,Unknown,"9500 North Wheeling Avenue Box 100, Muncie, IN 47304",40.274867,-85.432009,100,Unknown,IN5218003,IN5218003,COUNTRY ACRES MOBILE HOME PARK,100.0,,100.0,,,,,,,,,,,,,,,,,,,,,,,,both
134,Country Court Estates,Yes,0,0%,Unknown,"10744 US-27, Fort Wayne, IN 46816",40.98512,-85.090865,250,Unknown,IN5202003,IN5202003,COUNTRY COURT ESTATES,0.0,0.0,250.0,0.0,0.0,0.0,0.0,0.0,P,P,R,R,R,R,R,R,,,10.0,10.0,10.0,10.0,10.0,10.0,,,both
135,Country Estates Mobile Home Park,No,No response,Unknown,Unknown,"4410 West Old State Road 28, Frankfort, IN 46041-7126",40.278539,-86.483079,60,Unknown,IN5212002,,,,,,,,,,,,,,,,,,,,,,,,,,,,,left_only
136,Country Manor Estates,No,No response,Unknown,Unknown,"13174 North Gasburg Road, Mooresville, IN 46158",39.617641,-86.437274,511,Unknown,IN5255017,,,,,,,,,,,,,,,,,,,,,,,,,,,,,left_only
137,Country Meadows Mobile Home Park,No,No response,Unknown,Unknown,"929 Monarch Ln, Rochester, IN 46975",41.051105,-86.229424,28,Unknown,IN5220031,,,,,,,,,,,,,,,,,,,,,,,,,,,,,left_only
138,Country Retreat MHC LLC,Yes,No response,Unknown,Unknown,"1210 South Q Street, Richmond, IN 47374",39.807889,-84.887116,22,Unknown,IN5289001,IN5289001,"COUNTRY RETREAT MHC, LLC",22.0,,22.0,,,,,,M,R,R,,,,,,,,10.0,,,,,,,,both
139,Country Squire Mobile Home Park Inc,No,No response,Unknown,Unknown,"8555 South Pugsley Road Lot #2, Daleville, IN 47334",40.116589,-85.472695,17,Unknown,IN5218004,,,,,,,,,,,,,,,,,,,,,,,,,,,,,left_only
140,Country View Estates,No,No response,Unknown,Unknown,"1199 Hospital Rd #52, Franklin, IN 46131",39.47753,-86.08003,20,Unknown,IN5254019,,,,,,,,,,,,,,,,,,,,,,,,,,,,,left_only
141,Country Village Apartments,Yes,No response,Unknown,Unknown,"1732 East National Avenue, Brazil, IN 47834",39.528874,-87.104773,36,Unknown,IN5232012,IN5232012,COUNTRY VILLAGE APARTMENTS,2.0,,2.0,,,,,,P,P,R,,,,,,R,,10.0,,,,,,10.0,,both
142,Countryside Estate Mobile Home Park,Yes,0,0%,Unknown,"1500 E Fuson Rd, Muncie, IN 47302",40.151221,-85.369925,68,Unknown,IN5273005,IN5273005,COUNTRYSIDE ESTATE MOBILE HOME PARK,60.0,0.0,55.0,5.0,0.0,0.0,0.0,0.0,P,P,R,E,R,R,R,R,,,9.0,9.0,10.0,10.0,10.0,10.0,,,both
143,Countryview Farms,No,No response,Unknown,Unknown,"5900 W Co Rd 350 N #45, Muncie, IN 47304",40.241307,-85.455881,147,Unknown,IN5218011,,,,,,,,,,,,,,,,,,,,,,,,,,,,,left_only
144,County Line Mobile Home Park,No,No response,Unknown,Unknown,"311 Lockerbie Pl, Fairmount, IN 46928",40.380081,-85.653725,38,Unknown,IN5227003,,,,,,,,,,,,,,,,,,,,,,,,,,,,,left_only
145,Covington Water Department,Yes,No response,Unknown,Unknown,"1329 2nd Street P.O. Box 248, Covington, IN 47932",40.146306,-87.40049,1247,Unknown,IN5223002,IN5223002,COVINGTON WATER DEPARTMENT,1258.0,,,1258.0,,,,,M,R,,,,,,,,,,,,,,,,,both
146,Crane Water Works,No,No response,Unknown,Unknown,"23148 Harper Hill Road, Loogootee, IN 47553",38.836498,-86.898805,125,Unknown,IN5251002,,,,,,,,,,,,,,,,,,,,,,,,,,,,,left_only
147,Crawford County Water Company Inc,Yes,No response,Unknown,Unknown,"293 North State Road 66, Marengo, IN 47140",38.342505,-86.354587,960,Unknown,IN5213001,IN5213001,"CRAWFORD COUNTY WATER COMPANY, INC.",,,951.0,,,,,,P,R,R,,,,,,,,10.0,,,,,,,,both
148,Creekside Manor Mobile Home Park,No,No response,Unknown,Unknown,"P.O. Box 249, Lapaz, IN 46537",41.457827,-86.307881,42,Unknown,IN5250007,,,,,,,,,,,,,,,,,,,,,,,,,,,,,left_only
149,Creekside Mobile Home Park,No,No response,Unknown,Unknown,"102 Millers Dr, Mentone, IN 46539",41.174742,-86.048577,58,Unknown,IN5273004,,,,,,,,,,,,,,,,,,,,,,,,,,,,,left_only
150,Crescent Hills Mobile Home Park,No,No response,Unknown,Unknown,"1801 W Market, Logansport IN 46947",40.756121,-86.395374,47,Unknown,IN5209011,,,,,,,,,,,,,,,,,,,,,,,,,,,,,left_only
151,Cromwell Water Works,No,No response,Unknown,Unknown,"P.O. Box 574, Cromwell, IN 46732",41.400604,-85.615818,235,Unknown,IN5257004,,,,,,,,,,,,,,,,,,,,,,,,,,,,,left_only
152,Crossings Mobile Home Park,Yes,0,0%,Recorded,"5333 Wilson Place, Merrillville, IN 46410 ",41.521659,-87.378177,42,Unknown,IN5245014,IN5245014,CROSSINGS MOBILE HOME PARK,45.0,0.0,45.0,0.0,0.0,0.0,0.0,0.0,P,R,R,R,R,R,R,R,R,R,10.0,10.0,10.0,10.0,10.0,10.0,10.0,10.0,both
153,Crothersville Utilities,No,No response,Unknown,Unknown,"111 East Howard Street, Crothersville, IN 47229",38.795334,-85.840883,750,Unknown,IN5236001,,,,,,,,,,,,,,,,,,,,,,,,,,,,,left_only
154,Crown Point Water Works,No,No response,Unknown,Unknown,"705 Industrial Boulevard, Crown Point, IN 46307",41.424426,-87.345938,13048,Unknown,IN5245008,,,,,,,,,,,,,,,,,,,,,,,,,,,,,left_only
155,Culver Educational Foundation,No,No response,Unknown,Unknown,"1300 Academy Road #154, Culver, IN 46511",41.225093,-86.404714,50,Unknown,IN5250004,,,,,,,,,,,,,,,,,,,,,,,,,,,,,left_only
156,Culver Water Department,No,No response,Unknown,Unknown,"200 East Washington, Culver, IN 46511",41.217726,-86.422523,850,Unknown,IN5250005,,,,,,,,,,,,,,,,,,,,,,,,,,,,,left_only
157,Culvers Hill - North Webster,No,No response,Unknown,Unknown,"104 South Main Street, Nappanee, IN 46550",41.44244,-86.001613,44,Unknown,IN5243005,,,,,,,,,,,,,,,,,,,,,,,,,,,,,left_only
158,Cynthiana Water Works,No,No response,Unknown,Unknown,"P.O. Box 95, Cynthiana, IN 47612",38.187544,-87.710303,270,Unknown,IN5265004,,,,,,,,,,,,,,,,,,,,,,,,,,,,,left_only
159,Dale Water Works,No,No response,Unknown,Unknown,"P.O. Box 117, Dale, IN 47523",38.168942,-86.989997,654,Unknown,IN5274002,,,,,,,,,,,,,,,,,,,,,,,,,,,,,left_only
160,Daleville (Town Of),Yes,No response,Unknown,Unknown,"8019 South Walnut P.O. Box 567, Daleville, IN 47334",40.121361,-85.558114,714,Unknown,IN5218027,IN5218027,DALEVILLE (TOWN OF),714.0,,,714.0,,,,,M,R,,,,,,,,,,,,,,,,,both
161,Dana Water Works,No,No response,Unknown,Unknown,"104 Maple Street P.O. Box 371, Dana, IN 47847",39.804535,-87.494653,15,Unknown,IN5283005,,,,,,,,,,,,,,,,,,,,,,,,,,,,,left_only
162,Danville Water Works,Yes,100,3.03%,Estimated and Recorded,"49 North Wayne Street, Danville, IN 46122",39.761462,-86.52013,3300,0.005,IN5232004,IN5232004,DANVILLE WATER WORKS,3500.0,100.0,3500.0,0.0,100.0,0.0,0.0,0.0,M,P,E and R,E and R,E and R,E and R,E and R,E and R,E and R,E and R,9.0,9.0,9.0,9.0,9.0,9.0,9.0,9.0,both
163,Darlington Water,Yes,0,0%,Recorded,"222 W Main St, Darlington, IN 47940",40.109903,-86.776572,317,Unknown,IN5254003,IN5254003,DARLINGTON WATER,319.0,0.0,319.0,0.0,0.0,0.0,0.0,0.0,P,P,R,R,R,R,R,R,R,R,9.0,9.0,10.0,10.0,10.0,9.0,9.0,9.0,both
164,Daviess County Rural Water,Yes,No response,Unknown,Unknown,"P.O. Box 129, Washington, IN 47501-0129",38.659215,-87.172789,2847,0.0036,IN5214002,IN5214002,DAVIESS COUNTY RURAL WATER,3000.0,,3000.0,,,,,,,,,,,,,,,,,,,,,,,,both
165,Dayton Water Utility,Yes,0,0%,Unknown,"P.O. Box 557, Dayton, IN 47941-0557",40.377537,-86.775571,535,Unknown,IN5279021,IN5279021,DAYTON WATER UTILITY,536.0,0.0,536.0,0.0,0.0,0.0,0.0,0.0,M,R,R,,,,,,,,8.0,,,,,,,,both
166,Decatur Co Water Corp,No,No response,Unknown,Unknown,"3455 Old North US Highway 421, Greensburg, IN 47240",39.386711,-85.548512,1090,Unknown,IN5216008,,,,,,,,,,,,,,,,,,,,,,,,,,,,,left_only
167,Decatur Water Department,Yes,2300,51.57%,Estimated,"172 North 2nd Street, Decatur, IN 46733",40.831282,-84.924047,4460,0.0077,IN5201002,IN5201002,DECATUR WATER DEPARTMENT,4400.0,2300.0,2000.0,100.0,0.0,2000.0,200.0,100.0,M,R,E,E,E,E,E,E,E,E,4.0,8.0,5.0,2.0,2.0,2.0,2.0,2.0,both
168,Decker Water Works,Yes,0,0%,Recorded,"8 Julius P.O. Box 275, Freelandville, IN 47535",38.861196,-87.302036,109,Unknown,IN5242004,IN5242004,DECKER WATER WORKS,0.0,0.0,,109.0,0.0,0.0,0.0,0.0,,,,,R,R,R,R,R,R,,,1.0,1.0,1.0,1.0,1.0,1.0,both
169,Deer Creek Estates Home Water Assoc,Yes,0,0%,Recorded,"P.O. Box 382, Galveston, IN 46932",40.578928,-86.190272,98,Unknown,IN5252007,IN5252007,DEER CREEK ESTATES HOME WATER ASSOC.,86.0,0.0,86.0,0.0,0.0,0.0,0.0,0.0,P,R,R,R,R,R,R,R,R,R,10.0,10.0,10.0,10.0,10.0,10.0,10.0,16.0,both
170,Deerwood Mobile Home Park,No,No response,Unknown,Unknown,"4016 Lincoln Boulevard, Marion, IN 46953",40.52091,-85.64088,56,Unknown,IN5227004,,,,,,,,,,,,,,,,,,,,,,,,,,,,,left_only
171,Delaware Acres MHC,Yes,No response,Unknown,Unknown,"9901 State Road 3 North Lot 4, Muncie, IN 47303",40.238831,-85.367726,128,Unknown,IN5218005,IN5218005,DELAWARE ACRES MHC,128.0,,128.0,,,,,,P,P,R,,,,,,,,10.0,,,,,,,,both
172,Delphi Water Works,Yes,No response,Unknown,Unknown,"201 South Union Street, Delphi, IN 46923-1594",40.586369,-86.67237,1200,Unknown,IN5208002,IN5208002,DELPHI WATER WORKS,1200.0,,400.0,800.0,,,,,M,R,E,E,,,,,E,,5.0,5.0,,,,,,,both
173,Dillsboro Water Works,Yes,No response,Unknown,Unknown,"P.O. Box 127, Dillsboro, IN 47018",39.017835,-85.058843,790,0.0243,IN5215002,IN5215002,DILLSBORO WATER WORKS,790.0,,790.0,,,,,,M,R,,,,,,,,,,,,,,,,,both
174,Dixon Woods Apartments,No,No response,Unknown,Unknown,"540 North Liberty Street, Russiavillle, IN 46979",40.423673,-86.272247,24,Unknown,IN5234011,,,,,,,,,,,,,,,,,,,,,,,,,,,,,left_only
175,Dublin Municipal Water Works,Yes,0,0%,Recorded,"2250 East Cumberland St P.O. Box 145, Dublin, IN 47335",39.812202,-85.208306,401,Unknown,IN5289005,IN5289005,DUBLIN MUNICIPAL WATER WORKS,428.0,0.0,428.0,0.0,0.0,0.0,0.0,0.0,M,R,R,R,R,R,R,R,R,R,10.0,10.0,10.0,10.0,10.0,10.0,10.0,10.0,both
176,Dubois Water Utilities,Yes,0,0%,Recorded,"5470 East Waterworks Street, Dubois, IN 47527-9767",38.441313,-86.805359,3452,0.0092,IN5219002,IN5219002,DUBOIS WATER UTILITIES,3427.0,0.0,3427.0,0.0,0.0,0.0,0.0,0.0,M,R,R,R,R,R,R,R,R,R,10.0,10.0,10.0,10.0,10.0,10.0,10.0,10.0,both
177,Duff Water Corporation,Yes,0,0%,Estimated,"6675 West 450 South, Huntingburg, IN 47542",38.315528,-87.031111,330,Unknown,IN5219003,IN5219003,DUFF WATER CORPORATION,330.0,0.0,0.0,330.0,,,,,P,R,E,E,,,,,,E,10.0,10.0,,,,,,10.0,both
178,Dugger Utilities,No,No response,Unknown,Unknown,"P.O. Box 146, Dugger, IN 47848",39.070043,-87.261404,843,Unknown,IN5277002,,,,,,,,,,,,,,,,,,,,,,,,,,,,,left_only
179,Duneland Beach Association,Yes,20,10.10%,Estimated,"3303 LaSalle Trail, Michigan City, IN 46360",41.75356,-86.830917,198,Unknown,IN5246008,IN5246008,DUNELAND BEACH ASSOCIATION,198.0,20.0,178.0,,20.0,,0.0,0.0,M,P,R,,E,,R,E,,E,10.0,,8.0,,10.0,8.0,,8.0,both
180,Dunkirk Water Department,No,No response,Unknown,Unknown,"312 North Meridian Street, Dunkirk, IN 47336",40.377502,-85.210615,1033,Unknown,IN5238001,,,,,,,,,,,,,,,,,,,,,,,,,,,,,left_only
181,Dupont Water Company,No,No response,Unknown,Unknown,"P.O. Box 600, Dupont, IN 47231",38.890056,-85.51413,1525,Unknown,IN5240004,,,,,,,,,,,,,,,,,,,,,,,,,,,,,left_only
182,Dyer Water Department,No,No response,Unknown,Unknown,"One Town Square, Dyer, IN 46311",41.493349,-87.520381,7180,Unknown,IN5245011,,,,,,,,,,,,,,,,,,,,,,,,,,,,,left_only
183,Eagles Nest Estates,No,No response,Unknown,Unknown,"877 East US 6 - Office, Ligonier, IN 46767",41.45386,-85.573649,129,Unknown,IN5257006,,,,,,,,,,,,,,,,,,,,,,,,,,,,,left_only
184,Eagletown Estates Mobile Home Park,No,No response,Unknown,Unknown,"17707 Eagletown Rd #38, Westfield, IN 46074",40.043674,-86.192652,38,Unknown,IN5229023,,,,,,,,,,,,,,,,,,,,,,,,,,,,,left_only
185,Earl Park Municipal Water Utility,No,No response,Unknown,Unknown,"P.O. Box 67, Earl Park, IN 47942",40.683663,-87.415632,170,Unknown,IN5204003,,,,,,,,,,,,,,,,,,,,,,,,,,,,,left_only
186,East Chicago Water Works,Yes,9000,100.00%,Estimated,"3455 Pennsylvania Avenue, East Chicago, IN 46312",41.651043,-87.445302,7200,0.0084,IN5245012,IN5245012,EAST CHICAGO WATER WORKS,11000.0,9000.0,,2000.0,,4000.0,1000.0,4000.0,P,R,,E,,E,E,E,E,E,,,,,,,,,both
187,East Fork Water,Yes,0,0%,Unknown,"P.O. Box 488, Shoals, IN 47581",38.664884,-86.792466,1235,Unknown,IN5251004,IN5251004,EAST FORK WATER,1276.0,0.0,1276.0,0.0,0.0,0.0,0.0,0.0,P,R,R,,R,R,R,E,,,10.0,8.0,10.0,10.0,10.0,9.0,,9.0,both
188,East Lawrence Water Authority,Yes,0,0%,Unknown,"1009 Crawford Drive, Bedford, IN 47421",38.868682,-86.455177,3101,0.0096,IN5247002,IN5247002,EAST LAWRENCE WATER AUTHORITY,3172.0,0.0,3172.0,0.0,0.0,0.0,0.0,0.0,P,R,,,,,,,,,,,,,,,,,both
189,East Monroe Water Corporation,Yes,No response,Unknown,Unknown,"3428 South Knightridge Road, Bloomington, IN 47401",39.129492,-86.443816,1383,0.0012,IN5253003,IN5253003,EAST MONROE WATER CORPORATION,1380.0,,1380.0,,,,,,P,R,R,,,,,,,,10.0,,,,,,,,both
190,East Washington Rural Water,Yes,0,0%,Estimated,"P.O. Box 401, Salem, IN 47167",38.605613,-86.101089,3383,0.003,IN5288002,IN5288002,EAST WASHINGTON RURAL WATER,3600.0,0.0,3600.0,0.0,0.0,0.0,0.0,0.0,P,R,E,E,E,E,E,E,E,E,10.0,10.0,10.0,10.0,10.0,5.0,10.0,8.0,both
191,Eastern Bartholomew Water,Yes,No response,Unknown,Unknown,"P.O. Box 487, Taylorsville, IN 47280",39.295764,-85.949615,5249,0.005,IN5203004,IN5203004,EASTERN BARTHOLOMEW WATER,5180.0,,3885.0,1295.0,,,,,P,R,R,E,,,,,,,10.0,10.0,,,,,,,both
192,Eastern Heights Utilities,Yes,1127,16.42%,Recorded,"P.O. Box 8, Bloomfield, IN 47424",39.027588,-86.937035,6862,0.0025,IN5228003,IN5228003,EASTERN HEIGHTS UTILITIES,6864.0,1127.0,5735.0,0.0,1127.0,2.0,0.0,0.0,P,R,R,,E,R,E,E,R,R,6.0,,5.0,7.0,4.0,4.0,10.0,6.0,both
193,Eaton Water Works,No,No response,Unknown,Unknown,"600 East Harris Street, Eaton, IN 47338",40.342764,-85.349784,642,Unknown,IN5218006,,,,,,,,,,,,,,,,,,,,,,,,,,,,,left_only
194,Edgewood Water Department,No,No response,Unknown,Unknown,"3405 Nichol Avenue, Anderson, IN 46011",40.100968,-85.73209,915,Unknown,IN5248006,,,,,,,,,,,,,,,,,,,,,,,,,,,,,left_only
195,Edinburgh Water Utility,Yes,300,15.86%,Estimated,"107 South Holland Street Box 65, Edinburgh, IN 46124",39.353907,-85.965078,1892,0.0078,IN5241002,IN5241002,EDINBURGH WATER UTILITY,1891.0,300.0,1182.0,409.0,300.0,0.0,0.0,0.0,M,R,R,E,E,E,E,E,R,E,10.0,9.0,7.0,9.0,8.0,10.0,10.0,7.0,both
196,Edwardsport Water Utility,Yes,0,0%,Recorded,"4 Julius P.O. Box 275, Freelandville, IN 47535",38.860879,-87.302772,191,Unknown,IN5242005,IN5242005,EDWARDSPORT WATER UTILITY,0.0,0.0,,191.0,0.0,0.0,0.0,0.0,,,,,R,R,R,R,R,R,,,1.0,1.0,1.0,1.0,1.0,1.0,both
197,Edwardsville Water Corporation,Yes,0,0%,Recorded,"545 Maplewood Boulevard, New Albany, IN 47151",38.283555,-85.911347,3977,0.0019,IN5222001,IN5222001,EDWARDSVILLE WATER CORPORATION,4100.0,0.0,4100.0,0.0,0.0,0.0,0.0,0.0,P,R,R,R,R,R,R,R,R,R,10.0,10.0,10.0,10.0,10.0,10.0,10.0,10.0,both
198,Elberfeld Water Department,Yes,No response,Unknown,Unknown,"P.O. Box 37, Elberfeld, IN 47613",38.159767,-87.448348,723,Unknown,IN5287003,IN5287003,ELBERFELD WATER DEPARTMENT,696.0,,,696.0,,,,,P,R,,E,,,,,,,,1.0,,,,,,,both
199,Elkhart Mobile Home Park,Yes,No response,Unknown,Unknown,"29200 County Road 20 West, Elkhart, IN 46517",41.658586,-86.026386,76,Unknown,IN5220007,IN5220007,ELKHART MOBILE HOME PARK,75.0,,,75.0,,,,,P,R,,E,,,,,R,,,10.0,,,,,10.0,,both
200,Elkhart Public Works And Utilities,Yes,145,0.82%,Unknown,"1201 South Nappanee Street, Elkhart, IN 46516",41.676487,-86.004065,17577,0.0112,IN5220008,IN5220008,ELKHART PUBLIC WORKS AND UTILITIES,20260.0,145.0,12025.0,8090.0,0.0,,145.0,,R,R,R,R,E,,R,,,,10.0,10.0,10.0,,10.0,,,,both
201,Ellettsville Water Works,Yes,0,0%,Recorded,"P.O. Box 8, Ellettsville, IN 47429",39.233937,-86.624297,4981,0.0025,IN5253004,IN5253004,ELLETTSVILLE WATER WORKS,4861.0,0.0,4861.0,0.0,0.0,0.0,0.0,0.0,P,R,R,E,R,R,R,R,R,R,10.0,10.0,10.0,10.0,10.0,10.0,,10.0,both
202,Ellis Water Company Inc,Yes,0,0%,Unknown,"P.O. Box 291, Linton, IN 47441",39.034767,-87.165846,1347,Unknown,IN5228001,IN5228001,"ELLIS WATER COMPANY, INC.",1800.0,0.0,0.0,1800.0,0.0,0.0,0.0,0.0,P,R,E,E,E,E,E,E,,,,,10.0,,10.0,,,,both
203,Elnora Water Works,No,No response,Unknown,Unknown,"P.O. Box 336 426 South Odon Street, Elnora, IN 47529",38.875801,-87.086442,265,Unknown,IN5214003,,,,,,,,,,,,,,,,,,,,,,,,,,,,,left_only
204,Elwood Water & Sewage,Yes,270,7.68%,Estimated,"1505 South B Street, Elwood, IN 46036-0018",40.274744,-85.840545,3516,0.004,IN5248007,IN5248007,ELWOOD WATER & SEWAGE,3514.0,270.0,1145.0,2099.0,270.0,0.0,0.0,0.0,M,R,,,E,E,E,E,,E,3.0,3.0,3.0,8.0,6.0,8.0,9.0,3.0,both
205,English Water Works,Yes,0,0%,Unknown,"P.O. Box 258, English, IN 47118",38.353806,-86.442849,328,Unknown,IN5213002,IN5213002,ENGLISH WATER WORKS,280.0,0.0,280.0,0.0,0.0,0.0,0.0,0.0,M,R,R,R,R,R,R,R,,,10.0,10.0,10.0,10.0,10.0,10.0,,,both
206,Etna Green Water Department,Yes,34,12.36%,Estimated,"P.O. Box 183, Etna Green, IN 46524",41.278934,-86.046109,275,Unknown,IN5243003,IN5243003,ETNA GREEN WATER DEPARTMENT,234.0,34.0,200.0,,34.0,,,,M,R,E,,E,,,,E,E,8.0,,8.0,,,,8.0,8.0,both
207,Evansville Water Utility,Yes,1300,2.17%,Estimated and Recorded,"2519 Vogel Road, Evansville, IN 47711",37.988214,-87.518081,60000,0.002,IN5282002,IN5282002,EVANSVILLE WATER UTILITY,60000.0,1300.0,58700.0,0.0,50.0,0.0,1250.0,0.0,P,R,E and R,E and R,E and R,E and R,E and R,E and R,E and R,E and R,9.0,7.0,2.0,7.0,6.0,7.0,10.0,5.0,both
208,Everton Water Corporation,Yes,No response,Unknown,Unknown,"5471 South State Road 1, Connersville, IN 47331",39.563092,-85.090129,775,Unknown,IN5221002,IN5221002,EVERTON WATER CORPORATION,798.0,,798.0,,0.0,0.0,0.0,0.0,P,R,E,,E,E,E,E,E,,8.0,,8.0,8.0,8.0,8.0,8.0,,both
209,Fairmount Water Works,No,No response,Unknown,Unknown,"214 West Washington Street, Fairmount, IN 46928-1955",40.415755,-85.652415,1160,Unknown,IN5227005,,,,,,,,,,,,,,,,,,,,,,,,,,,,,left_only
210,Fairview Park Water Utilities,Yes,No response,Unknown,Unknown,"420 East 3rd Street P.O. Box 312, Clinton, IN 47842",39.68313,-87.408881,640,Unknown,IN5283006,IN5283006,FAIRVIEW PARK WATER UTILITIES,630.0,,630.0,,,,,,M,R,E,,,,,,E,,9.0,,,,,,9.0,,both
211,Fairway Regional Water District,No,No response,Unknown,Unknown,"617 East 113th Place, Crown Point, IN 46307",41.411996,-87.328225,84,Unknown,IN5245009,,,,,,,,,,,,,,,,,,,,,,,,,,,,,left_only
212,Farmland Municipal Water Works,Yes,No response,Unknown,Unknown,"P.O. Box 336, Farmland, IN 47340",40.187822,-85.127468,670,Unknown,IN5268002,IN5268002,FARMLAND MUNICIPAL WATER WORKS,660.0,,,660.0,,0.0,,,M,R,,,,E,,,,,,,,10.0,,,,,both
213,Fawn River Crossing,Yes,0,0%,Recorded,"P.O. Box 270, Lagrange, IN 46761",41.641717,-85.416647,14,Unknown,IN5244001,IN5244001,FAWN RIVER CROSSING,14.0,0.0,14.0,0.0,0.0,0.0,0.0,0.0,R,R,R,R,R,R,R,R,R,R,8.0,8.0,8.0,8.0,8.0,8.0,8.0,8.0,both
214,Fayette Township Water Association,No,No response,Unknown,Unknown,"10300 South 75 West, Clinton, IN 47842",39.733528,-87.477798,834,Unknown,IN5284002,,,,,,,,,,,,,,,,,,,,,,,,,,,,,left_only
215,FCI & FPC - Terre Haute,Yes,No response,Unknown,Estimated,"4200 Bureau Road North, Terre Haute, IN 47808",39.414293,-87.451288,15,Unknown,IN5284018,IN5284018,FCI & FPC - TERRE HAUTE,15.0,,15.0,,,,,,P,P,E,E,E,E,E,E,,E,1.0,1.0,1.0,1.0,1.0,1.0,,1.0,both
216,Ferdinand Water Department,No,No response,Unknown,Unknown,"513 West 5th Street P.O. Box 7, Ferdinand, IN 47532",38.22097,-86.867226,965,Unknown,IN5219004,,,,,,,,,,,,,,,,,,,,,,,,,,,,,left_only
217,Finch Newton Water Inc,No,No response,Unknown,Unknown,"P.O. Box 115, Chrisney, IN 47611-0115",38.014773,-87.036386,710,Unknown,IN5274003,,,,,,,,,,,,,,,,,,,,,,,,,,,,,left_only
218,Flora Water Works,No,No response,Unknown,Unknown,"4 East Main Street, Flora, IN 46929",40.548104,-86.523737,995,Unknown,IN5208003,,,,,,,,,,,,,,,,,,,,,,,,,,,,,left_only
219,Floyds Knobs Water Company Inc,Yes,0,0%,Unknown,"7329 Voyles Road, Greenville, IN 47124",38.379554,-85.995005,2291,0.0064,IN5222002,IN5222002,"FLOYDS KNOBS WATER COMPANY, INC.",2240.0,0.0,2240.0,0.0,0.0,,0.0,,P,R,E,E,E,,E,,,,10.0,10.0,10.0,,10.0,,,,both
220,Forest Oaks Mhc LLC,No,No response,Unknown,Unknown,"2503 Chicago Street Suite 4, Valaparaiso, IN 46304",41.472592,-87.029707,228,Unknown,IN5264003,,,,,,,,,,,,,,,,,,,,,,,,,,,,,left_only
221,Fort Branch Water Department,Yes,No response,Unknown,Unknown,"P. O. Box 40, Fort Branch, IN 47648-0040",38.238203,-87.560846,1407,0.031,IN5226001,IN5226001,FORT BRANCH WATER DEPARTMENT,1400.0,,1300.0,100.0,,,,,M,R,E,E,,,,,E,,7.0,5.0,,,,,,,both
222,Fort Wayne - 3 Rivers Filtration Plant,Yes,28000,28.98%,Estimated,"1100 Griswold Drive, Fort Wayne, IN 46805-4100",41.086406,-85.130029,96618,0.12,IN5202020,IN5202020,FORT WAYNE - 3 RIVERS FILTRATION PLANT,101000.0,28000.0,66000.0,7000.0,0.0,27000.0,0.0,1000.0,P,R,E,E,E,E,E,E,E,E,7.0,3.0,8.0,6.0,8.0,7.0,8.0,6.0,both
223,Fortville Water Works,No,No response,Unknown,Unknown,"714 East Broadway, Fortville, IN 46040-1557",39.934374,-85.840695,1700,Unknown,IN5230003,,,,,,,,,,,,,,,,,,,,,,,,,,,,,left_only
224,Fountain City Water Works,Yes,0,0%,Estimated,"P.O. Box 312, Fountain City, IN 47341",39.955603,-84.917462,344,Unknown,IN5289006,IN5289006,FOUNTAIN CITY WATER WORKS,339.0,0.0,339.0,0.0,0.0,0.0,0.0,0.0,M,Some M and some R,E,E,E,E,E,E,R,E,9.0,9.0,9.0,9.0,9.0,9.0,10.0,9.0,both
225,Fowler Water Works,No,No response,Unknown,Unknown,"307 East 5th Street, Fowler, IN 47944",40.617866,-87.320443,1119,Unknown,IN5204006,,,,,,,,,,,,,,,,,,,,,,,,,,,,,left_only
226,Francesville Water Department,No,No response,Unknown,Unknown,"P.O. Box 616, Francesville, IN 47946",40.985317,-86.879461,453,Unknown,IN5266001,,,,,,,,,,,,,,,,,,,,,,,,,,,,,left_only
227,Francisco Water Department,No,No response,Unknown,Unknown,"P.O. Box 66, Francisco, IN 47649-0066",38.332269,-87.445295,372,Unknown,IN5226002,,,,,,,,,,,,,,,,,,,,,,,,,,,,,left_only
228,Frankfort Water Works,Yes,1500,21.74%,Estimated,"2105 West Armstrong Road, Frankfort, IN 46041",40.266839,-86.539305,6900,0.012,IN5212003,IN5212003,FRANKFORT WATER WORKS,7000.0,1500.0,5000.0,500.0,1500.0,0.0,0.0,0.0,M,R,E,E,E,E,E,E,E,E,6.0,3.0,5.0,8.0,8.0,7.0,7.0,5.0,both
229,Franklin County Water Association,Yes,0,0%,Unknown,"9112 State Road 1, Brookville, IN 47012",39.436259,-85.019425,3607,0.024,IN5224002,IN5224002,FRANKLIN COUNTY WATER ASSOCIATION,3406.0,0.0,3406.0,0.0,0.0,0.0,0.0,0.0,P,R,R,,,,,,,,10.0,10.0,10.0,10.0,10.0,10.0,10.0,10.0,both
230,Frankton Water Works,No,No response,Unknown,Unknown,"P.O. Box 286, Frankton, IN 46044",40.223092,-85.780152,921,Unknown,IN5248008,,,,,,,,,,,,,,,,,,,,,,,,,,,,,left_only
231,Freelandville Water Association,Yes,0,0%,Recorded,"P.O. Box 321 A, Freelandville, IN 47535",38.865036,-87.305652,440,Unknown,IN5242006,IN5242006,FREELANDVILLE WATER ASSOCIATION,0.0,0.0,0.0,440.0,0.0,0.0,0.0,0.0,,,R,,R,R,R,R,R,R,1.0,,1.0,1.0,1.0,1.0,1.0,1.0,both
232,Fremont Water Department,Yes,10,1.16%,Unknown,"P.O. Box 602, Fremont, IN 46737",41.730883,-84.93274,862,Unknown,IN5276006,IN5276006,FREMONT WATER DEPARTMENT,30.0,10.0,20.0,0.0,0.0,0.0,0.0,10.0,M,R,E,E,E,E,E,E,,,10.0,9.0,10.0,10.0,9.0,9.0,,,both
233,Galveston Water Works,No,No response,Unknown,Unknown,"P.O. Box 597, Galveston, IN 46932",40.578928,-86.190272,639,Unknown,IN5209003,,,,,,,,,,,,,,,,,,,,,,,,,,,,,left_only
234,Garden City Mobile Home Park,No,No response,Unknown,Unknown,"4911 Rockville Road, Indianapolis IN 46241",39.763194,-86.243989,47,Unknown,IN5203005,,,,,,,,,,,,,,,,,,,,,,,,,,,,,left_only
235,Garrett Water Utility,Yes,No response,Unknown,Unknown,"P.O. Box 332, Garrett, IN 46738",41.349494,-85.135527,2250,0.007,IN5217004,IN5217004,GARRETT WATER UTILITY,2250.0,,,2250.0,,,,,M,R,,,,,,,,,,,,,,,,,both
236,Gas City Water Department,Yes,100,3.94%,Unknown,"200 East North ""A"" Street, Gas City, IN 46933",40.488842,-85.613099,2540,0.001,IN5227006,IN5227006,GAS CITY WATER DEPARTMENT,2400.0,100.0,2300.0,,100.0,,,,M,P,E and R,,E,,,,,,10.0,,7.0,,,,,,both
237,Gaston Water Works,No,No response,Unknown,Unknown,"P.O. Box 186, Gaston, IN 47342",40.313931,-85.500528,323,Unknown,IN5218008,,,,,,,,,,,,,,,,,,,,,,,,,,,,,left_only
238,Gatewood Estates,Yes,No response,Unknown,Unknown,"2403 US Highway 31 Lot 1A, Plymouth, IN 46563",41.44359,-86.318322,75,Unknown,IN5250012,IN5250012,GATEWOOD ESTATES,82.0,,82.0,,,,,,P,P,R,,,,,,,,10.0,,,,,,,,both
239,Geneva Water Department,Yes,No response,Unknown,Estimated,"1866 East State Road 218, Geneva, IN 46711",40.655108,-85.037212,575,Unknown,IN5201003,IN5201003,GENEVA WATER DEPARTMENT,575.0,,288.0,287.0,,,,,U,U,E,E,E,E,E,E,E,E,8.0,8.0,10.0,10.0,10.0,10.0,9.0,10.0,both
240,Gentryville Water Utility,Yes,No response,Unknown,Unknown,"P.O. Box 261, Gentryville, IN 47537",38.104218,-87.033053,640,Unknown,IN5274004,IN5274004,GENTRYVILLE WATER UTILITY,620.0,,620.0,620.0,0.0,0.0,0.0,0.0,P,R,R,E,E,E,E,E,E,,6.0,6.0,6.0,6.0,6.0,6.0,6.0,,both
241,George Ade Memorial Health Care Center,Yes,No response,Unknown,Unknown,"3623 East State Road 16, Brook, IN 47922",40.864737,-87.323209,1,Unknown,IN5256014,IN5256014,GEORGE ADE MEMORIAL HEALTH CARE CENTER,1.0,,,,,,,,P,P,,,,,,,,,,,,,,,,,both
242,Georgetown Water Department,No,No response,Unknown,Unknown,"P.O. Box 127, Georgetown, IN 47122",38.294512,-85.975524,1300,Unknown,IN5222003,,,,,,,,,,,,,,,,,,,,,,,,,,,,,left_only
243,German Township Water District Inc,Yes,0,0%,Recorded,"2636 West Boonville New Harmony RE, Evansville, IN 47720",38.098387,-87.602553,4703,0.0031,IN5282003,IN5282003,GERMAN TOWNSHIP WATER DISTRICT INC.,4651.0,0.0,4651.0,0.0,0.0,0.0,0.0,0.0,P,R,R,R,R,R,R,R,R,R,10.0,10.0,10.0,10.0,10.0,10.0,10.0,10.0,both
244,Gibson Water Inc,Yes,0,0%,Estimated,"517 East 1250 South, Haubstadt, IN 47639",38.173478,-87.559104,1740,0.0032,IN5226009,IN5226009,"GIBSON WATER, INC.",1720.0,0.0,1720.0,0.0,0.0,0.0,0.0,0.0,P,R,R,R,R,R,R,E,E,E,10.0,10.0,10.0,10.0,10.0,9.0,10.0,10.0,both
245,Glen Eden Association,Yes,0,0%,Recorded,"175 Lane 200 Lake James, Angola, IN 46703",41.692287,-85.015358,48,Unknown,IN5276041,IN5276041,GLEN EDEN ASSOCIATION,48.0,0.0,48.0,0.0,0.0,0.0,0.0,0.0,R,R,R,R,R,R,R,R,R,R,10.0,10.0,10.0,10.0,10.0,10.0,10.0,10.0,both
246,Glenn Hills Non-Profit Corp,Yes,No response,Unknown,Unknown,"3908 South Franks Lane, Selma, IN 47383-9730",40.157045,-85.29758,30,Unknown,IN5218020,IN5218020,GLENN HILLS NON-PROFIT CORP.,30.0,,30.0,,,,,,P,R,R,,,,,,R,,10.0,,,,,,10.0,,both
247,Glenwood Water Works,Yes,0,0%,Unknown,"P.O. Box 102, Glenwood, IN 46133",39.625881,-85.300244,122,Unknown,IN5270002,IN5270002,GLENWOOD WATER WORKS,150.0,0.0,145.0,5.0,0.0,0.0,0.0,0.0,P,R,E,E,E,E,E,E,,,9.0,9.0,8.0,9.0,8.0,9.0,,,both
248,Golden Acres Mobile Home Park,No,No response,Unknown,Unknown,"3184 North 100 East, Angola, IN 46703",41.691244,-84.967219,41,Unknown,IN5276036,,,,,,,,,,,,,,,,,,,,,,,,,,,,,left_only
249,Golden Pebbles Estates,No,No response,Unknown,Unknown,"3052 North Gary Street, New Castle, IN 47362",39.976996,-85.394166,150,Unknown,IN5233002,,,,,,,,,,,,,,,,,,,,,,,,,,,,,left_only
250,Goodland Water Works,No,No response,Unknown,Unknown,"P.O. Box 269, Goodland, IN 47948-0269",40.763373,-87.293633,494,Unknown,IN5256003,,,,,,,,,,,,,,,,,,,,,,,,,,,,,left_only
251,Goshen Water Utility,Yes,1600,15.37%,Estimated,"308 North 5th Street, Goshen, IN 46528-2802",41.589721,-85.83235,10407,0.0024,IN5220009,IN5220009,GOSHEN WATER UTILITY,10637.0,1600.0,10637.0,1348.0,1600.0,0.0,0.0,0.0,P,R,E,E,E,E,E,E,E,E,3.0,3.0,3.0,3.0,3.0,3.0,3.0,3.0,both
252,Gosport Water Utility,Yes,No response,Unknown,Unknown,"Town Hall P.O. Box 146, Gosport, IN 47433",39.349647,-86.664334,372,Unknown,IN5260003,IN5260003,GOSPORT WATER UTILITY,362.0,,146.0,216.0,,,,,M,R,,,,,,,,,10.0,10.0,,,,,,,both
253,Grabill Water Works,Yes,0,0%,Unknown,"P.O. Box 321, Grabill, IN 46741",41.210883,-84.966911,500,Unknown,IN5202006,IN5202006,GRABILL WATER WORKS,560.0,0.0,560.0,0.0,0.0,0.0,0.0,0.0,M,R,E,R,R,R,R,R,E,0,9.0,9.0,9.0,9.0,9.0,9.0,9.0,9.0,both
254,Grandview Municipal Water Utility,Yes,0,0%,Unknown,"P.O. Box 638, Grandview, IN 47615",37.933663,-86.981106,322,Unknown,IN5274005,IN5274005,GRANDVIEW MUNICIPAL WATER UTILITY,324.0,0.0,324.0,0.0,0.0,0.0,0.0,0.0,M,R,R,,,,,,R,,8.0,,,,,,8.0,,both
255,Grantsburg Rural Water Company,Yes,0,0%,Unknown,"3678 South Atkins Lane, Grantsburg, IN 47123",38.281269,-86.471697,100,Unknown,IN5213003,IN5213003,GRANTSBURG RURAL WATER COMPANY,99.0,0.0,99.0,0.0,0.0,0.0,0.0,0.0,P,R,R,R,R,R,R,R,,,10.0,10.0,10.0,10.0,10.0,10.0,,,both
256,Grayfox Public Water Supply,Yes,0,0%,Recorded,"7405 Cinereal Court, Roanoke, IN 46783",41.015222,-85.332157,47,Unknown,IN5202030,IN5202030,GRAYFOX PUBLIC WATER SUPPLY,48.0,0.0,48.0,0.0,0.0,0.0,0.0,0.0,P,R,E,R,R,R,R,R,R,R,10.0,10.0,10.0,10.0,10.0,10.0,10.0,10.0,both
257,Green Acres Mobile Home Park,No,No response,Unknown,Unknown,"800 IN-212, Michigan City, IN 46360",41.718824,-86.823744,227,Unknown,IN5243006,,,,,,,,,,,,,,,,,,,,,,,,,,,,,left_only
258,Greencastle Department Of Water,No,No response,Unknown,Unknown,"P.O. Box 288, Greencastle, IN 46135",39.64449,-86.864732,3802,Unknown,IN5267004,,,,,,,,,,,,,,,,,,,,,,,,,,,,,left_only
259,Greenfield Water Utility,Yes,No response,Unknown,Estimated,"451 Meek Street, Greenfield, IN 46140",39.780987,-85.766264,7677,0.005,IN5230004,IN5230004,GREENFIELD WATER UTILITY,8044.0,,7698.0,346.0,,0.0,,0.0,M,M and R,E,E,E,E,E,E,R,E,8.0,,1.0,5.0,1.0,5.0,10.0,1.0,both
260,Greensburg Municipal Water Works,Yes,0,0%,Recorded,"1105 North Ireland Street, Greensburg, IN 47240",39.347456,-85.489235,4796,0.0072,IN5216002,IN5216002,GREENSBURG MUNICIPAL WATER WORKS,4500.0,0.0,4500.0,0.0,0.0,0.0,0.0,0.0,P,R,R,R,R,R,R,R,R,R,10.0,10.0,10.0,10.0,10.0,10.0,10.0,10.0,both
261,Greentown Municipal Water,Yes,No response,Unknown,Unknown,"P.O. Box 247, Greentown, IN 46936",40.478094,-85.966653,980,0.018,IN5234006,IN5234006,GREENTOWN MUNICIPAL WATER,900.0,,900.0,,,,,,P,R,E,,,,,,,,9.0,,,,,,,,both
262,Greenville Water Utility,Yes,No response,Unknown,Unknown,"P.O. Box 188, Greenville, IN 47124",38.372564,-85.986359,1815,0.0015,IN5222004,IN5222004,GREENVILLE WATER UTILITY,1786.0,,100.0,1686.0,,,,,M,R,E,E,,,,,R,,5.0,5.0,,,,,8.0,,both
263,Griffith Water Department,Yes,0,0%,Estimated,"111 North Broad Street, Griffith, IN 46319",41.523314,-87.42724,5796,0.0048,IN5245019,IN5245019,GRIFFITH WATER DEPARTMENT,5596.0,0.0,5596.0,,0.0,0.0,0.0,,R,R,E,E,E,E,E,E,E,E,8.0,9.0,8.0,8.0,8.0,9.0,8.0,8.0,both
264,Hagerstown Mobile Home Court,No,No response,Unknown,Unknown,"472 Jones Road Lot 18, Hagerstown, IN 47346",39.91917,-85.152355,37,Unknown,IN5289007,,,,,,,,,,,,,,,,,,,,,,,,,,,,,left_only
265,Hagerstown Municipal Water Works,Yes,25,2.69%,Estimated,"49 East College Street, Hagerstown, IN 47346",39.911489,-85.161009,930,Unknown,IN5289008,IN5289008,HAGERSTOWN MUNICIPAL WATER WORKS,900.0,25.0,800.0,75.0,25.0,0.0,0.0,0.0,M,R,R,E,E,E,E,E,R,E,6.0,5.0,4.0,5.0,5.0,5.0,8.0,5.0,both
266,Hamilton Estates,No,No response,Unknown,Unknown,"921 Ironwood Drive, Carmel, IN 46033",39.990378,-86.09984,44,Unknown,IN5229026,,,,,,,,,,,,,,,,,,,,,,,,,,,,,left_only
267,Hamilton Grove,No,No response,Unknown,Unknown,"31869 Chicago Trail, New Carlisle, IN 46552-9639",41.733706,-86.484886,26,Unknown,IN5271024,,,,,,,,,,,,,,,,,,,,,,,,,,,,,left_only
268,Hamilton Water Department,Yes,0,0%,Unknown,"900 South Wayne Street P.O. Box 249, Hamilton, IN 46742-0249",41.523278,-84.917231,985,Unknown,IN5276023,IN5276023,HAMILTON WATER DEPARTMENT,980.0,0.0,980.0,,,,,,M,R,R,,,,,,,,8.0,,,,,,,,both
269,Hamlet Water Works,No,No response,Unknown,Unknown,"P.O. Box 181, Hamlet, IN 46532",41.380954,-86.582019,347,Unknown,IN5275001,,,,,,,,,,,,,,,,,,,,,,,,,,,,,left_only
270,Hammond Water Works Department,Yes,No response,Unknown,Unknown,"6505 Columbia Avenue, Hammond, IN 46320",41.59541,-87.499737,24115,0.0094,IN5245020,IN5245020,HAMMOND WATER WORKS DEPARTMENT,24148.0,,,24148.0,,,,,R,R,,,,,,,,,,,,,,,,,both
271,Hanover College,No,No response,Unknown,Unknown,"359 East LaGrange Road, Hanover, IN 47243",38.720999,-85.467447,109,Unknown,IN5239010,,,,,,,,,,,,,,,,,,,,,,,,,,,,,left_only
272,Hanover Water Department,No,No response,Unknown,Unknown,"11 Madison Avenue P.O. Box 288, Hanover, IN 47243",38.714164,-85.467087,1125,Unknown,IN5239003,,,,,,,,,,,,,,,,,,,,,,,,,,,,,left_only
273,Harris Hills Mobile Home Park,No,No response,Unknown,Unknown,"154 Chariot Drive, Anderson, IN 46013",40.079371,-85.699088,19,Unknown,IN5229011,,,,,,,,,,,,,,,,,,,,,,,,,,,,,left_only
274,Hartford City Water Works,No,No response,Unknown,Unknown,"700 North Walnut Street, Hartford City, IN 47348",40.456838,-85.369412,2508,Unknown,IN5205002,,,,,,,,,,,,,,,,,,,,,,,,,,,,,left_only
275,Haubstadt Water Department,Yes,No response,Unknown,Unknown,"P.O. Box 365 101 South Main Street, Haubstadt, IN 47639-0365",38.205007,-87.574821,868,0.0188,IN5226003,IN5226003,HAUBSTADT WATER DEPARTMENT,841.0,,841.0,,,,,,M,R,R,,,,,,R,,10.0,,,,,,10.0,,both
276,Hayden Water Association,Yes,1102,100.00%,Unknown,"6970 West US Highway 50, North Vernon, IN 47265",38.976092,-85.739772,952,Unknown,IN5240005,IN5240005,HAYDEN WATER ASSOCIATION,1102.0,1102.0,,,,,1102.0,,P,R,,,,,R,,,,,,,,8.0,,,,both
277,Hazelton Water Department,No,No response,Unknown,Unknown,"107 North Main Street, Hazleton, IN 47640",38.489045,-87.542875,147,Unknown,IN5226004,,,,,,,,,,,,,,,,,,,,,,,,,,,,,left_only
278,Hebron Water Department,Yes,No response,Unknown,Unknown,"P.O. Box 478, Hebron, IN 46341",41.318648,-87.200309,1376,0.0047,IN5264009,IN5264009,HEBRON WATER DEPARTMENT,1296.0,,1296.0,,,,,,M,R,R,,,,,,,,9.0,,,,,,,,both
279,Heritage Hills Campground,Yes,0,0%,Recorded,"6055 Hertel Road, Brookville, IN 47012",39.385679,-85.045161,864,Unknown,IN5281029,IN5281029,HERITAGE HILLS CAMPGROUND,850.0,0.0,850.0,0.0,0.0,0.0,0.0,0.0,P,R,R,R,R,R,R,R,R,R,9.0,9.0,9.0,9.0,9.0,9.0,9.0,9.0,both
280,Heritage Park Apartments,No,No response,Unknown,Unknown,"635 Ferry Street, Lafayette, IN 47901",40.419825,-86.8891,24,Unknown,IN5237008,,,,,,,,,,,,,,,,,,,,,,,,,,,,,left_only
281,Heritage Pointe,No,No response,Unknown,Unknown,"P.O. Box 326 801 Huntington Avenue, Warren, IN 46792",40.687314,-85.4299,1,Unknown,IN5235011,,,,,,,,,,,,,,,,,,,,,,,,,,,,,left_only
282,Hickory Manor Mobile Home Park,No,No response,Unknown,Unknown,"Huley Dr, North Vernon, IN 47265",39.014313,-85.644188,90,Unknown,IN5240012,,,,,,,,,,,,,,,,,,,,,,,,,,,,,left_only
283,Highland Water Works,Yes,461,5.07%,Estimated,"3333 Ridge Road, Highland, IN 46322",41.553655,-87.447973,9093,0.0017,IN5245021,IN5245021,HIGHLAND WATER WORKS,9196.0,461.0,7356.0,1103.0,0.0,93.0,184.0,184.0,Resident,Resident,E,E,E,E,E,E,E,E,,,,,,,,,both
284,Hill Water Corporation,Yes,0,0%,Estimated,"P.O. Box 339, Mooresville, IN 46158-0339",39.612824,-86.37416,2985,0.004,IN5255021,IN5255021,HILL WATER CORPORATION,2950.0,0.0,2950.0,0.0,0.0,0.0,0.0,0.0,P,R,E,E,E,E,E,E,E,E,10.0,10.0,10.0,10.0,10.0,10.0,10.0,10.0,both
285,Hillsboro Water Utility,No,No response,Unknown,Unknown,"P.O. Box 126, Hillsboro, IN 47949",40.108371,-87.158989,280,Unknown,IN5223003,,,,,,,,,,,,,,,,,,,,,,,,,,,,,left_only
286,Hillsdale Water Corporation,No,No response,Unknown,Unknown,"P.O. Box 96, Hillsdale, IN 47854",39.785871,-87.390295,265,Unknown,IN5283007,,,,,,,,,,,,,,,,,,,,,,,,,,,,,left_only
287,Hilltop Farms LP (and Phase Two),Yes,No response,Unknown,Unknown,"1801 Smith Street, Logansport, IN 46947",40.770847,-86.347761,48,0.063,IN5252001,IN5252001,"HILLTOP FARMS, L.P.",48.0,,48.0,,,,,,P,P,R,,,,,,,,10.0,,,,,,,,both
288,Hogan Water Corporation,Yes,No response,Unknown,Unknown,"409 2nd Street, Aurora, IN 47001",39.056558,-84.901661,478,0.0194,IN5215005,IN5215005,HOGAN WATER CORPORATION,475.0,,,475.0,,,,,M,R,,R,,,,,R,,,10.0,,,,,10.0,,both
289,Holiday Woods Subdivision,No,No response,Unknown,Unknown,"P.O. Box 483, Angola, IN 46703",41.634773,-84.999409,90,Unknown,IN5276026,,,,,,,,,,,,,,,,,,,,,,,,,,,,,left_only
290,Holland Water Works,No,No response,Unknown,Unknown,"7288 Lauderdale Road, Dale, IN 47523",38.169748,-87.10373,545,Unknown,IN5219006,,,,,,,,,,,,,,,,,,,,,,,,,,,,,left_only
291,Holston Rentals,No,No response,Unknown,Unknown,"P. O. Box 151, Walkerton, IN 46574",41.466711,-86.483068,33,Unknown,IN5271029,,,,,,,,,,,,,,,,,,,,,,,,,,,,,left_only
292,Holton Community Water Corp,Yes,0,0%,Unknown,"36 North Old Michigan Road, Holton, IN 47023",39.075942,-85.348391,945,Unknown,IN5269008,IN5269008,HOLTON COMMUNITY WATER CORP.,945.0,0.0,945.0,0.0,0.0,0.0,0.0,0.0,P,R,R,,,,,,,,10.0,,,,,,,,both
293,Home Place Mobile Home Park - Well#1,No,No response,Unknown,Unknown,"2792 South Country Club, Warsaw, IN 46580",41.193838,-85.8241,40,Unknown,IN5243040,,,,,,,,,,,,,,,,,,,,,,,,,,,,,left_only
294,Honeysuckle (Fort Wayne Utilities),Yes,0,0%,Estimated,"1102 Griswold Drive, Fort Wayne, IN 46805-4100",41.086409,-85.130027,32,0.0453,IN5202012,IN5202012,HONEYSUCKLE (FORT WAYNE UTILITIES),26.0,0.0,26.0,0.0,0.0,0.0,0.0,0.0,P,R,E,E,E,E,E,E,E,E,9.0,9.0,9.0,9.0,9.0,9.0,9.0,9.0,both
295,Honeysuckle Mobile Home Park,No,No response,Unknown,Unknown,"305 West 700 North, Valparaiso, IN 46385",41.536202,-87.125034,18,Unknown,IN5245022,,,,,,,,,,,,,,,,,,,,,,,,,,,,,left_only
296,Hoosier Hills Regional Water District,Yes,0,0%,Unknown,"7215 East State Road 350 P.O. Box 395, Milan, IN 47031",39.133951,-85.130736,3483,0.0089,IN5269002,IN5269002,HOOSIER HILLS REGIONAL WATER DISTRICT,3413.0,0.0,3413.0,0.0,0.0,0.0,0.0,0.0,P,R,,,,,,,,,10.0,10.0,10.0,10.0,10.0,10.0,,,both
297,Hoosier Youth Challenge Academy,Yes,0,0%,Recorded,"10892 North State Road 140, Knightstown, IN 46148",39.766924,-85.516945,25,Unknown,IN5270007,IN5270007,HOOSIER YOUTH CHALLENGE ACADEMY,28.0,0.0,28.0,0.0,0.0,0.0,0.0,0.0,P,P,R,R,R,R,R,R,R,R,10.0,10.0,10.0,10.0,10.0,10.0,10.0,10.0,both
298,Hope Water Department,Yes,0,0%,Unknown,"529 Mill Street P.O. Box 33, Hope, IN 47246",39.302044,-85.767772,830,Unknown,IN5203006,IN5203006,HOPE WATER DEPARTMENT,850.0,0.0,850.0,,0.0,0.0,0.0,0.0,M,R,E,,,,,,E,,10.0,,,,,,10.0,,both
299,Hudson Water Works,No,No response,Unknown,Unknown,"P.O. Box 97, Hudson, IN 46747",41.532828,-85.081079,253,Unknown,IN5276022,,,,,,,,,,,,,,,,,,,,,,,,,,,,,left_only
300,Huntertown Water Works,Yes,0,0%,Unknown,"15617 Lima Road P.O. Box 95, Huntertown, IN 46748-0188",41.228502,-85.172422,3350,0.006,IN5202007,IN5202007,HUNTERTOWN WATER WORKS,3294.0,0.0,3294.0,0.0,0.0,0.0,0.0,0.0,M,R,R,0,0,0,0,0,,,9.0,0.0,0.0,0.0,0.0,0.0,,,both
301,Huntingburg Municipal Water,Yes,45,1.83%,Estimated,"1101 West 6th Street, Huntingburg, IN 47542",38.294581,-86.985291,2459,0.0107,IN5219007,IN5219007,HUNTINGBURG MUNICIPAL WATER,2700.0,45.0,2655.0,0.0,0.0,0.0,45.0,0.0,M,R,R,R,R,R,E,R,R,E,8.0,9.0,8.0,8.0,5.0,9.0,9.0,5.0,both
302,Huntington Water Department,Yes,No response,Unknown,Unknown,"2290 Engle Street, Huntington, IN 46750",40.855939,-85.498475,7516,0.0089,IN5235005,IN5235005,HUNTINGTON WATER DEPARTMENT,6844.0,,2976.0,3868.0,,,,,M,R,E,E,,,,,R,,9.0,8.0,,,,,10.0,,both
303,Hymera Water Works,Yes,0,0%,Estimated,"P.O. Box 421, Hymera, IN 47855",39.186324,-87.303477,418,Unknown,IN5277004,IN5277004,HYMERA WATER WORKS,433.0,0.0,433.0,0.0,,0.0,0.0,0.0,P,R,R,E,,E,E,E,E,E,10.0,8.0,,9.0,9.0,9.0,9.0,9.0,both
304,In Water Services Inc,Yes,0,0%,Unknown,"10996 Four Seasons Place Suite 100 G, Crown Point, IN 46307",41.418631,-87.236494,1659,0.005,IN5245057,IN5245057,"IN WATER SERVICES, INC.",1661.0,0.0,1661.0,0.0,0.0,0.0,0.0,0.0,P,R,E,E,E,E,E,E,,,7.0,7.0,7.0,10.0,10.0,9.0,,,both
305,Indian Springs Town Homes,No,No response,Unknown,Unknown,"13840 Jennings Lane, Crown Point, IN 46307",41.366807,-87.378197,32,Unknown,IN5246038,,,,,,,,,,,,,,,,,,,,,,,,,,,,,left_only
306,Indiana Academy,No,No response,Unknown,Unknown,"24815 State Road 19, Cicero, IN 46034",40.148586,-86.013021,18,Unknown,IN5229025,,,,,,,,,,,,,,,,,,,,,,,,,,,,,left_only
307,Indiana American Water - Crawfordsville,Yes,155,2.62%,Estimated,"809 Banjo Dr, Crawfordsville, IN 47933",40.0516,-86.845284,5919,0.001,IN5254005,IN5254005,INDIANA AMERICAN WATER - CRAWFORDSVILLE,6055.0,155.0,5900.0,0.0,75.0,0.0,50.0,30.0,P,R,E,E,E,E,E,E,E,E,80.0,10.0,6.0,6.0,6.0,6.0,6.0,6.0,both
308,Indiana American Water - Farmersburg,Yes,50,7.13%,Estimated,"100 W Main St, Farmersburg, IN 47850",39.253897,-87.379765,701,Unknown,IN5277003,IN5277003,INDIANA AMERICAN WATER - FARMERSBURG,650.0,50.0,580.0,20.0,30.0,0.0,20.0,0.0,P,R,E,E,E,E,E,E,E,E,6.0,6.0,6.0,6.0,6.0,6.0,6.0,6.0,both
309,Indiana American Water - Johnson County,Yes,778,2.57%,Recorded,"153 N Emerson Ave, Greenwood, IN 46143",39.619891,-86.081502,30226,0.002,IN5241005,IN5241005,INDIANA AMERICAN WATER - JOHNSON COUNTY,30000.0,778.0,29222.0,,733.0,,5.0,,P,R,E,,R,,R,,E,R,8.0,,8.0,0.0,8.0,0.0,8.0,8.0,both
310,Indiana American Water - Kokomo,Yes,986,4.70%,Recorded,"1700 E Superior St, Kokomo, IN 46901",40.486291,-86.110741,20974,0.002,IN5234007,IN5234007,INDIANA AMERICAN WATER - KOKOMO,24600.0,986.0,22587.0,1027.0,35.0,0.0,951.0,0.0,P,R,R,R,R,E,R,E,R,R,8.0,8.0,8.0,4.0,8.0,4.0,8.0,8.0,both
311,Indiana American Water - Mecca,Yes,0,0%,Estimated,"4976 Wabash St, Mecca, IN 47860",39.726994,-87.331921,313,Unknown,IN5261004,IN5261004,INDIANA AMERICAN WATER - MECCA,340.0,0.0,340.0,0.0,0.0,0.0,0.0,0.0,P,R,E,E,E,E,E,E,E,E,6.0,6.0,6.0,6.0,6.0,6.0,6.0,6.0,both
312,Indiana American Water - Merom,Yes,0,0%,Estimated,"10839 W Co Rd 350 N, Merom, IN 47861",39.135696,-87.60502,136,Unknown,IN5277005,IN5277005,INDIANA AMERICAN WATER - MEROM,130.0,0.0,120.0,10.0,0.0,0.0,0.0,0.0,P,R,E,E,E,E,E,E,E,E,6.0,6.0,6.0,6.0,6.0,6.0,6.0,6.0,both
313,Indiana American Water - Mooresville,Yes,100,2.62%,Estimated,"425 W Main St, Mooresville, IN 46158",39.612737,-86.384027,3811,0.001,IN5255006,IN5255006,INDIANA AMERICAN WATER - MOORESVILLE,3800.0,100.0,3650.0,50.0,100.0,0.0,0.0,0.0,P,R,E,E,E,E,E,E,E,E,7.0,7.0,7.0,7.0,7.0,7.0,7.0,7.0,both
314,Indiana American Water - Muncie,Yes,1996,7.43%,Recorded,"1420 S Burlington Dr, Muncie, IN 47302",40.18224,-85.350136,26882,0.005,IN5218012,IN5218012,INDIANA AMERICAN WATER - MUNCIE,30000.0,1996.0,26924.0,1080.0,1000.0,100.0,796.0,100.0,P,R,R,R,E,E,R,E,R,R,8.0,5.0,3.0,5.0,5.0,3.0,8.0,5.0,both
315,Indiana American Water - Newburgh,Yes,20,0.24%,Estimated,"98 W 1st St, Newburgh, IN 47630",37.948227,-87.405916,8433,0.002,IN5287004,IN5287004,INDIANA AMERICAN WATER - NEWBURGH,8640.0,20.0,8620.0,0.0,0.0,0.0,0.0,20.0,P,R,R,E,E,E,E,E,E,E,10.0,10.0,10.0,10.0,10.0,2.0,10.0,2.0,both
316,Indiana American Water - Noblesville,Yes,249,1.59%,Estimated,"15227 Herriman Blvd, Noblesville, IN 46060",40.008358,-86.006377,15667,0.007,IN5229015,IN5229015,INDIANA AMERICAN WATER - NOBLESVILLE,15696.0,249.0,15447.0,0.0,249.0,0.0,0.0,0.0,P,R,R,,E,,,,R,E,7.0,,7.0,,,,10.0,7.0,both
317,Indiana American Water - Northwest,Yes,35632,53.41%,Recorded,"650 Madison St, Gary, IN 46402",41.599334,-87.342584,66713,0.011,IN5245015,IN5245015,INDIANA AMERICAN WATER - NORTHWEST,80026.0,35632.0,44108.0,286.0,0.0,26011.0,6700.0,2921.0,P,R,R,R,R,R,R,R,R,R,8.0,9.0,9.0,8.0,8.0,8.0,8.0,8.0,both
318,Indiana American Water - Richmond,Yes,4617,30.53%,Recorded,"1710 Sylvan Nook Dr, Richmond, IN 47374",39.854269,-84.879186,15121,0.014,IN5289012,IN5289012,INDIANA AMERICAN WATER - RICHMOND,17000.0,4617.0,12383.0,0.0,360.0,3757.0,250.0,250.0,P,R,R,R,E,R,E,E,R,R,5.0,8.0,3.0,5.0,5.0,3.0,8.0,5.0,both
319,Indiana American Water - Russiaville,Yes,0,0%,Recorded,"120 E Main St, Russiaville, IN 46979",40.417864,-86.271109,449,Unknown,IN5234008,IN5234008,INDIANA AMERICAN WATER - RUSSIAVILLE,460.0,0.0,460.0,0.0,0.0,0.0,0.0,0.0,P,R,R,R,R,R,R,R,R,R,8.0,8.0,8.0,8.0,8.0,3.0,10.0,8.0,both
320,Indiana American Water - S Indiana,Yes,233,0.74%,Estimated,"555 East County Line Road Suite 201, Greenwood, IN 46143",39.634274,-86.094017,31405,0.001,IN5210005,IN5210005,INDIANA AMERICAN WATER - S. INDIANA,34183.0,233.0,33721.0,279.0,50.0,,183.0,,P,R,R,R,E,,R,,R,E,9.0,9.0,5.0,0.0,9.0,0.0,9.0,7.0,both
321,Indiana American Water - Seymour,Yes,20,0.27%,Estimated,"330 W Tipton St, Seymour, IN 47274",38.95712,-85.890949,7484,0.004,IN5236005,IN5236005,INDIANA AMERICAN WATER - SEYMOUR,7450.0,20.0,4350.0,3100.0,10.0,0.0,0.0,10.0,P,R,R,E,E,E,E,E,E,E,10.0,8.0,7.0,9.0,9.0,5.0,8.0,8.0,both
322,Indiana American Water - Shelbyville,Yes,593,8.91%,Unknown,"E Broadway St, Shelbyville, IN 46176",39.522928,-85.769484,6652,0.007,IN5273002,IN5273002,INDIANA AMERICAN WATER - SHELBYVILLE,6707.0,593.0,6107.0,7.0,561.0,0.0,32.0,0.0,P,R,R,R,R,E,R,E,,,9.0,9.0,9.0,9.0,9.0,9.0,,,both
323,Indiana American Water - Somerset,Yes,0,0%,Unknown,"23 2nd St, Somerset, IN 46984",40.668723,-85.829446,93,Unknown,IN5285002,IN5285002,INDIANA AMERICAN WATER - SOMERSET,97.0,0.0,97.0,0.0,0.0,0.0,0.0,0.0,P,R,R,,,,,,R,,10.0,,,,,,10.0,,both
324,Indiana American Water - Sullivan,Yes,250,10.38%,Estimated,"198 W Washington St, Sullivan, IN 47882",39.095461,-87.409606,2409,0.005,IN5277009,IN5277009,INDIANA AMERICAN WATER - SULLIVAN,5350.0,250.0,3600.0,1500.0,50.0,0.0,200.0,0.0,P,R,E,E,E,E,E,E,E,E,6.0,6.0,6.0,6.0,6.0,6.0,6.0,6.0,both
325,Indiana American Water - Summitville,Yes,31,8.20%,Estimated,"536 N Main St, Summitville, IN 46070",40.340801,-85.644747,378,Unknown,IN5248010,IN5248010,INDIANA AMERICAN WATER - SUMMITVILLE,420.0,31.0,389.0,0.0,31.0,0.0,0.0,0.0,P,R,E,,E,,,,,E,10.0,,8.0,,,,,,both
326,Indiana American Water - Terre Haute,Yes,6500,26.76%,Recorded,"51 Locust St, Terre Haute, IN 47807",39.476828,-87.417317,24289,0.003,IN5284012,IN5284012,INDIANA AMERICAN WATER - TERRE HAUTE,30500.0,6500.0,18000.0,6000.0,1317.0,0.0,5183.0,0.0,P,R,E,E,E,E,E,E,E,R,10.0,6.0,8.0,1.0,8.0,1.0,9.0,9.0,both
327,Indiana American Water - Wabash,Yes,595,13.50%,Estimated,"192 Stitt St, Wabash, IN 46992",40.803973,-85.826506,4406,0.005,IN5285003,IN5285003,INDIANA AMERICAN WATER - WABASH,4460.0,595.0,3865.0,0.0,453.0,0.0,142.0,0.0,P,R,E,,E,,E,,E,E,8.0,,8.0,,8.0,,8.0,8.0,both
328,Indiana American Water - Warsaw,Yes,262,5.40%,Estimated,"2420 Hidden Lake Dr, Warsaw, IN 46580",41.267062,-85.86017,4850,0.002,IN5243030,IN5243030,INDIANA AMERICAN WATER - WARSAW,5100.0,262.0,4838.0,0.0,262.0,0.0,0.0,0.0,P,R,E,E,E,E,E,E,E,E,9.0,7.0,9.0,9.0,9.0,9.0,9.0,9.0,both
329,Indiana American Water - Waveland,Yes,13,5.91%,Estimated,"106 Cross St, Waveland, IN 47989",39.877119,-87.04498,220,Unknown,IN5254012,IN5254012,INDIANA AMERICAN WATER - WAVELAND,213.0,13.0,200.0,0.0,10.0,0.0,0.0,3.0,P,R,E,E,E,E,E,E,E,E,5.0,5.0,5.0,5.0,5.0,5.0,5.0,5.0,both
330,Indiana American Water - West Lafayette,Yes,0,0%,Estimated,"1007 Happy Hollow Rd, West Lafayette, IN 47906",40.434741,-86.898871,12176,0.001,IN5279020,IN5279020,INDIANA AMERICAN WATER - WEST LAFAYETTE,12013.0,0.0,12013.0,0.0,0.0,0.0,0.0,0.0,P,R,E,E,E,E,E,E,E,E,10.0,10.0,10.0,10.0,10.0,10.0,10.0,10.0,both
331,Indiana American Water - Westwood,Yes,0,0%,Estimated,"1746 S Link St, New Castle, IN 47362",39.918911,-85.41874,63,Unknown,IN5279019,IN5279019,INDIANA AMERICAN WATER - WESTWOOD,63.0,0.0,63.0,0.0,0.0,0.0,0.0,0.0,P,R,R,E,E,E,E,E,E,E,10.0,10.0,10.0,10.0,10.0,10.0,10.0,10.0,both
332,Indiana American Water - Winchester,Yes,1039,51.64%,Recorded,"870 IN-32, Winchester, IN 47394",40.171721,-84.96749,2012,0.005,IN5268003,IN5268003,INDIANA AMERICAN WATER - WINCHESTER,2300.0,1039.0,1261.0,0.0,20.0,939.0,40.0,40.0,P,R,R,R,E,E,E,E,R,R,5.0,5.0,3.0,5.0,5.0,3.0,8.0,5.0,both
333,Indiana American Water - Yankeetown,Yes,0,0%,Estimated,"7936 Yankeetown Rd, Newburgh, IN 47630",37.918637,-87.298211,650,Unknown,IN5287008,IN5287008,INDIANA AMERICAN WATER - YANKEETOWN,664.0,0.0,664.0,0.0,0.0,0.0,0.0,0.0,P,R,R,E,E,E,E,E,E,E,10.0,10.0,10.0,10.0,10.0,10.0,10.0,10.0,both
334,Indiana Masonic Home,Yes,0,0%,Estimated and Recorded,"690 State Street, Franklin, IN 46131",39.472929,-86.044727,62,0.0361,IN5241010,IN5241010,INDIANA MASONIC HOME,62.0,0.0,62.0,0.0,0.0,0.0,0.0,0.0,P,P,E and R,E and R,E and R,E and R,E and R,E and R,E and R,E and R,9.0,9.0,9.0,9.0,9.0,9.0,9.0,9.0,both
335,Ingalls Water Company,Yes,0,0%,Recorded,"P.O.  Box 277, Ingalls, IN 46048-0277",39.961898,-85.802537,1068,0.002,IN5248012,IN5248012,INGALLS WATER COMPANY,1606.0,0.0,1606.0,0.0,0.0,0.0,0.0,0.0,P,P,R,R,R,R,R,R,R,R,9.0,9.0,10.0,10.0,10.0,10.0,9.0,9.0,both
336,Inwood Estates,No,No response,Unknown,Unknown,"6501 Hickory Road, Plymouth, IN 46563",41.383768,-86.196494,22,Unknown,IN5250006,,,,,,,,,,,,,,,,,,,,,,,,,,,,,left_only
337,Ireland Utilities Inc,Yes,No response,Unknown,Unknown,"P.O. Box 83, Ireland, IN 47545-0098",38.414692,-86.9994,1610,0.005,IN5219008,IN5219008,"IRELAND UTILITIES, INC.",,,1567.0,,,,,,,,R,,,,,,,,10.0,,,,,,,,both
338,J & T Water Company,No,No response,Unknown,Unknown,"4501 North Fruitridge Avenue, Terre Haute, IN 47805",39.520324,-87.360319,15,Unknown,IN5284005,,,,,,,,,,,,,,,,,,,,,,,,,,,,,left_only
339,J B Water Works Inc,No,No response,Unknown,Unknown,"P.O. Box 67, Laporte, IN 46352-0067",41.61,-86.72,119,Unknown,IN5246012,,,,,,,,,,,,,,,,,,,,,,,,,,,,,left_only
340,Jackson County Water - Reddington,Yes,No response,Unknown,Unknown,"11255 County Rd 1040 N, Seymour, IN 47274",39.031872,-85.831488,381,Unknown,IN5236008,IN5236008,JACKSON COUNTY WATER - REDDINGTON,375.0,,375.0,0.0,0.0,0.0,0.0,0.0,P,R,R,,R,,,,,,10.0,10.0,10.0,10.0,10.0,10.0,,,both
341,Jackson County Water Utility,Yes,75,1.52%,Unknown,"1119 W Spring Street, Brownstown, IN 47220",38.886295,-86.057063,4919,0.005,IN5236003,IN5236003,JACKSON COUNTY WATER UTILITY,5225.0,75.0,5150.0,0.0,75.0,0.0,0.0,0.0,P,R,E,,E,,,,,,9.0,10.0,8.0,10.0,10.0,10.0,,,both
342,Jamestown Municipal Water,No,No response,Unknown,Unknown,"P.O. Box 165, Jamestown, IN 46147",39.926711,-86.628893,487,Unknown,IN5206008,,,,,,,,,,,,,,,,,,,,,,,,,,,,,left_only
343,Jasonville Water Department,Yes,0,0%,Estimated,"304 West Main Street, Jasonville, IN 47438",39.162862,-87.201749,2200,0.023,IN5228004,IN5228004,JASONVILLE WATER DEPARTMENT,1650.0,0.0,1300.0,350.0,0.0,0.0,0.0,0.0,M,R,R,E,E,E,E,E,R,E,9.0,5.0,5.0,5.0,5.0,5.0,9.0,5.0,both
344,Jasper Municipal Water Utility,Yes,2000,33.16%,Estimated,"P.O. Box 750, Jasper, IN 47547-0750",38.39,-86.93,6031,0.01,IN5219009,IN5219009,JASPER MUNICIPAL WATER UTILITY,6530.0,2000.0,4530.0,0.0,1900.0,0.0,100.0,0.0,R,R,E,E,E,,E,E,E,E,8.0,6.0,7.0,9.0,3.0,9.0,9.0,2.0,both
345,Jennings Northwest Regional Utility,Yes,0,0%,Recorded,"P.O. Box 18, North Vernon, IN 47265",39.007358,-85.625987,1220,0.0018,IN5240002,IN5240002,JENNINGS NORTHWEST REGIONAL UTILITY,3000.0,0.0,3000.0,0.0,0.0,0.0,0.0,0.0,M,R,E,R,R,R,R,R,E,R,10.0,10.0,10.0,10.0,10.0,10.0,10.0,10.0,both
346,Jennings Water Inc,Yes,No response,Unknown,Unknown,"1595 East Buckeye Street, North Vernon, IN 47265",39.004777,-85.609716,3080,0.0052,IN5240006,IN5240006,"JENNINGS WATER, INC.",3200.0,,3200.0,,,,,,P,R,R,,,,,,R,,10.0,,,,,,10.0,,both
347,Jonesboro Water Department,Yes,No response,Unknown,Unknown,"414 South Main Street, Jonesboro, IN 46938",40.481863,-85.628225,900,Unknown,IN5227010,IN5227010,JONESBORO WATER DEPARTMENT,850.0,,,850.0,,,,,M,R,,,,,,,,,,,,,,,,,both
348,Kendallville Water Department,Yes,540,15.22%,Estimated,"234 South Main Street, Kendallville, IN 46755",41.441466,-85.265577,3549,0.05,IN5257008,IN5257008,KENDALLVILLE WATER DEPARTMENT,3540.0,540.0,2000.0,1000.0,,20.0,500.0,20.0,R,R,E,E,,E,E,E,E,E,2.0,2.0,,2.0,2.0,2.0,9.0,4.0,both
349,Kent Water Company (& Hanover College),No,No response,Unknown,Unknown,"P.O. Box 336, Hanover, IN 47243",38.714226,-85.473571,2700,Unknown,IN5239004,,,,,,,,,,,,,,,,,,,,,,,,,,,,,left_only
350,Kentland Water Works,Yes,0,0%,Estimated,"300 North 3rd Street, Kentland, IN 47951-1112",40.770441,-87.445495,899,Unknown,IN5256005,IN5256005,KENTLAND WATER WORKS,896.0,0.0,896.0,0.0,0.0,0.0,0.0,0.0,M,R,E,E,E,E,E,E,E,E,10.0,10.0,8.0,10.0,10.0,10.0,10.0,10.0,both
351,Kewanna Water Works,Yes,No response,Unknown,Unknown,"P.O. Box 5 308 South Logan Street, Kewanna, IN 46939",41.016155,-86.414638,311,Unknown,IN5225003,IN5225003,KEWANNA WATER WORKS,311.0,,311.0,,,,,,M,R,R,,,,,,R,,10.0,,,,,,10.0,,both
352,Kingman Water Works,Yes,0,0%,Unknown,"P.O. Box 25, Kingman, IN 47952",39.96754,-87.277512,273,0.02,IN5223004,IN5223004,KINGMAN WATER WORKS,270.0,0.0,270.0,0.0,0.0,0.0,0.0,0.0,M,R,,,,,,,,,9.0,9.0,9.0,9.0,9.0,9.0,,,both
353,Kings Ridge Homeowners Association,No,No response,Unknown,Unknown,"3730 Litchfield Place, Lafayette, IN 47906",40.473632,-86.899842,34,Unknown,IN5279023,,,,,,,,,,,,,,,,,,,,,,,,,,,,,left_only
354,Kingsbury Utility Corporation,No,No response,Unknown,Unknown,"P.O. Box 254, Kingsbury, IN 46345",41.526211,-86.699816,103,Unknown,IN5246013,,,,,,,,,,,,,,,,,,,,,,,,,,,,,left_only
355,Kingsford Heights Water,No,No response,Unknown,Unknown,"P. O. Box 330, Kingsford Heights, IN 46346",41.476408,-86.693839,535,Unknown,IN5246014,,,,,,,,,,,,,,,,,,,,,,,,,,,,,left_only
356,Kirklin Water Department,Yes,0,0%,Unknown,"Town of Kirklin P.O. Box 147, Kirklin, IN 46050",40.192979,-86.359832,325,Unknown,IN5212004,IN5212004,KIRKLIN WATER DEPARTMENT,500.0,0.0,500.0,0.0,0.0,0.0,0.0,0.0,M,P,E,E,,,,,,,5.0,5.0,10.0,10.0,10.0,10.0,,10.0,both
357,Knightstown Water Utility,No,No response,Unknown,Unknown,"26 South Washington Street, Knightstown, IN 46148",39.794914,-85.524885,1052,Unknown,IN5233005,,,,,,,,,,,,,,,,,,,,,,,,,,,,,left_only
358,Knightsville Water Works,No,No response,Unknown,Unknown,"1096 East County Road 425 North, Center Point, IN 47840",39.449092,-87.087859,565,Unknown,IN5211006,,,,,,,,,,,,,,,,,,,,,,,,,,,,,left_only
359,Knox County Water Inc,Yes,No response,Unknown,Unknown,"654 North Anson Road, Vincennes, IN 47512",38.680979,-87.423293,1263,0.0136,IN5242018,IN5242018,"KNOX COUNTY WATER, INC.",1266.0,,,800.0,,0.0,0.0,,P,R,E,E,,E,E,,R,,1.0,1.0,,5.0,,,10.0,,both
360,Knox Water Works,Yes,600,39.66%,Estimated,"101 West Washington Street, Knox, IN 46534",41.302172,-86.619789,1513,0.0027,IN5275002,IN5275002,KNOX WATER WORKS,1450.0,600.0,850.0,,600.0,0.0,0.0,0.0,M,R,E,,E,E,E,E,,E,5.0,,5.0,7.0,5.0,7.0,,5.0,both
361,Kokomo Estates Mobile Home Park,No,No response,Unknown,Unknown,"4508 East 200 South, Kokomo, IN 46902",40.450835,-86.042313,182,Unknown,IN5234003,,,,,,,,,,,,,,,,,,,,,,,,,,,,,left_only
362,Kouts Water Works,Yes,0,0%,Estimated,"P.O. Box 693, Kouts, IN 46347",41.313045,-87.028229,783,0.022,IN5264013,IN5264013,KOUTS WATER WORKS,816.0,0.0,796.0,30.0,0.0,0.0,0.0,0.0,R,R,R,E,E,E,E,0,R,E,9.0,9.0,10.0,10.0,10.0,10.0,10.0,9.0,both
363,Kozy Kourt Dba Silo Farms,Yes,0,0%,Unknown,"11112 North State Road 1, Ossian, IN 46777",40.904467,-85.166946,192,Unknown,IN5290004,IN5290004,KOZY KOURT DBA SILO FARMS,190.0,0.0,190.0,0.0,0.0,0.0,0.0,0.0,P,R,E,,,,,,,,10.0,,,,,,,,both
364,L & M Regional Water District,Yes,0,0%,Unknown,"P.O. Box 127, Losantville, IN 47354",40.024213,-85.182743,187,Unknown,IN5268013,IN5268013,L & M REGIONAL WATER DISTRICT,201.0,0.0,201.0,,,,,,P,R,R,,,,,,,,10.0,,,,,,,,both
365,L-A-C Utilities,Yes,0,0%,Unknown,"1805 Burlington Beach Road, Valparaiso, IN 46383",41.507518,-87.03873,904,Unknown,IN5264033,IN5264033,L-A-C UTILITIES,917.0,0.0,917.0,0.0,0.0,0.0,0.0,0.0,M,R,R,R,R,R,R,R,,,10.0,10.0,10.0,10.0,10.0,10.0,,,both
366,Lacrosse Water Department,Yes,No response,Unknown,Unknown,"P.O. Box 246, Lacrosse, IN 46348",41.31754,-86.891411,276,Unknown,IN5246015,IN5246015,LACROSSE WATER DEPARTMENT,276.0,,276.0,,,,,,M,R,R,,,,,,,,10.0,,,,,,,,both
367,Ladoga Water Works,No,No response,Unknown,Unknown,"121 East Main Street P.O. Box 187, Ladoga, IN 47954",39.913369,-86.80026,445,Unknown,IN5254006,,,,,,,,,,,,,,,,,,,,,,,,,,,,,left_only
368,Lafayette Water Works,Yes,2900,10.48%,Estimated,"1020 Canal Road, Lafayette, IN 47904",40.426951,-86.892773,27667,0.002,IN5279013,IN5279013,LAFAYETTE WATER WORKS,29000.0,2900.0,26100.0,0.0,0.0,0.0,2900.0,0.0,M,R,E,E,E,E,E,E,E,E,1.0,10.0,10.0,10.0,1.0,10.0,7.0,1.0,both
369,Lafontaine Water Company,Yes,75,18.94%,Estimated,"13 West Branson Street P.O. Box 207, Lafontaine, IN 46940",40.673231,-85.720466,396,Unknown,IN5285004,IN5285004,LAFONTAINE WATER COMPANY,450.0,75.0,375.0,75.0,75.0,0.0,0.0,0.0,M,R,R,E,E,E,E,E,R,E,10.0,9.0,5.0,10.0,10.0,10.0,10.0,10.0,both
370,Lagrange Department Of Water Works,No,No response,Unknown,Unknown,"1201 North Townline Road, Lagrange, IN 46761",41.656572,-85.425944,1287,Unknown,IN5244003,,,,,,,,,,,,,,,,,,,,,,,,,,,,,left_only
371,Lagro Municipal Water Department,Yes,No response,Unknown,Unknown,"P.O. Box 305, Lagro, IN 46941",40.8381,-85.730261,224,0.036,IN5285005,IN5285005,LAGRO MUNICIPAL WATER DEPARTMENT,194.0,,194.0,,0.0,0.0,0.0,,P,R,E,,E,E,E,,E,,3.0,,3.0,1.0,3.0,,3.0,,both
372,Lake Cicott Shores,Yes,0,0%,Unknown,"8538 W Us 24, Logansport, IN 46947 ",40.766384,-86.535308,31,Unknown,IN5209005,IN5209005,LAKE CICOTT SHORES,31.0,0.0,,31.0,,,,,P,P,,E,,,,,,,,10.0,,,,,,,both
373,Lake Estates Manufactured Home Community,Yes,0,0%,Recorded,"1 EMS B-37 Lane Clubhouse, Warsaw, IN 46582",41.289766,-85.734807,124,Unknown,IN5243010,IN5243010,LAKE ESTATES MANUFACTURED HOME COMMUNITY,124.0,0.0,124.0,0.0,0.0,0.0,0.0,0.0,P,P,R,R,R,R,R,R,R,R,10.0,10.0,10.0,10.0,10.0,10.0,10.0,10.0,both
374,Lake Santee Rwwd,No,No response,Unknown,Unknown,"13 SW Wrenn Parkway, Greensburg, IN 47240-7800",39.398301,-85.306294,554,Unknown,IN5216003,,,,,,,,,,,,,,,,,,,,,,,,,,,,,left_only
375,Lake Station Water Department,Yes,18,0.55%,Estimated,"2898 Union Street, Lake Station, IN 46405",41.565753,-87.232014,3267,0.0016,IN5245027,IN5245027,LAKE STATION WATER DEPARTMENT,3267.0,18.0,0.0,0.0,0.0,6.0,6.0,6.0,M,R,E,E,E,E,E,E,E,E,6.0,6.0,6.0,6.0,6.0,6.0,6.0,6.0,both
376,Lake View Mobile Home Park,No,No response,Unknown,Unknown,"5219 East 500 North Lot 23, Leesburg, IN 46538",41.307427,-85.744422,23,Unknown,IN5243053,,,,,,,,,,,,,,,,,,,,,,,,,,,,,left_only
377,Lake View Mobile Home Park,Yes,No response,Unknown,Unknown,"5866 W 200 S, Wabash, IN 46992",40.796796,-85.900755,27,Unknown,IN5285006,IN5285006,LAKE VIEW MOBILE HOME PARK,42.0,,42.0,42.0,,,,,P,P,R,E,,,,,,,10.0,8.0,,,,,,,both
378,Lakeland Manor Mobile Home Park,Yes,0,0%,Unknown,"P.O. Box 444, Auburn, IN 46706",41.365989,-85.057462,30,Unknown,IN5257022,IN5257022,LAKELAND MANOR MOBILE HOME PARK,30.0,0.0,30.0,0.0,0.0,0.0,0.0,0.0,P,P,R,,,,,,,,9.0,,,,,,,,both
379,Lakeshore Subdivision Association Inc,No,No response,Unknown,Unknown,"P.O. Box 606, Cedar Lake, IN 46303",41.376859,-87.453156,98,Unknown,IN5245053,,,,,,,,,,,,,,,,,,,,,,,,,,,,,left_only
380,Lakeside Management,No,No response,Unknown,Unknown,"3756 North Clubhouse Road, Rensselaer, IN 47978",41.066621,-87.134078,38,Unknown,IN5237016,,,,,,,,,,,,,,,,,,,,,,,,,,,,,left_only
381,Lakeside Manor Mobile Home Park,Yes,0,0%,Unknown,"196 McClung Rd, La Porte, IN 46350",41.632892,-86.738173,93,Unknown,IN5244002,IN5244002,LAKESIDE MANOR MOBILE HOME PARK,93.0,0.0,93.0,,,,,,P,P,R,,,,,,,,10.0,,,,,,,,both
382,Lakeville Water Department,Yes,No response,Unknown,Unknown,"P.O. Box 137 118 South Michigan Street, Lakeville, IN 46536",41.523739,-86.274102,320,Unknown,IN5271008,IN5271008,LAKEVILLE WATER DEPARTMENT,560.0,,330.0,230.0,,0.0,0.0,0.0,M,R,E,E,,,,E,,,7.0,5.0,1.0,1.0,,,,,both
383,Lakewood Mobile Home Ct - Lots 156-187,No,No response,Unknown,Unknown,"195 Ln 101 Barton Lake, Fremont, IN 46737",41.753538,-85.056751,30,Unknown,IN5276004,,,,,,,,,,,,,,,,,,,,,,,,,,,,,left_only
384,Lamplighter Estates - Lots 19-37,No,No response,Unknown,Unknown,"3837 West Landis Road, Angola, IN 46703",41.666985,-85.064246,19,Unknown,IN5276012,,,,,,,,,,,,,,,,,,,,,,,,,,,,,left_only
385,Lanesville Water Works,Yes,0,0%,Estimated,"P.O. Box 6, Lanesville, IN 47136-0006",38.237013,-85.985801,407,Unknown,IN5231003,IN5231003,LANESVILLE WATER WORKS,416.0,0.0,416.0,0.0,0.0,0.0,0.0,0.0,M,R,E,E,E,E,E,E,R,E,9.0,10.0,10.0,10.0,10.0,10.0,10.0,10.0,both
386,Lapel Municipal Water Company,No,No response,Unknown,Unknown,"P.O. Box 999, Lapel, IN 46051",40.068373,-85.848313,864,Unknown,IN5248013,,,,,,,,,,,,,,,,,,,,,,,,,,,,,left_only
387,Laporte Water Works,Yes,5825,72.05%,Estimated,"1119 Lake Street, Laporte, IN 46350",41.611671,-86.72981,8085,0.0035,IN5246017,IN5246017,LAPORTE WATER WORKS,8122.0,5825.0,1131.0,4694.0,2932.0,1000.0,1850.0,43.0,R,R,E,E,E,E,E,E,R,E,5.0,5.0,5.0,3.0,3.0,3.0,10.0,5.0,both
388,Laurel Water Department,Yes,0,0%,Recorded,"P.O. Box 232, Laurel, IN 47024",39.500662,-85.185752,271,Unknown,IN5224004,IN5224004,LAUREL WATER DEPARTMENT,270.0,0.0,0.0,0.0,0.0,0.0,0.0,0.0,p,R,R,R,R,R,R,R,R,R,10.0,10.0,10.0,10.0,10.0,10.0,10.0,10.0,both
389,Lawrenceburg Municipal Utilities,Yes,25,1.47%,Estimated,"P.O. Box 4198, Lawrenceburg, IN 47025",39.090891,-84.84995,1700,0.0065,IN5215006,IN5215006,LAWRENCEBURG MUNICIPAL UTILITIES,1692.0,25.0,1667.0,25.0,10.0,5.0,5.0,5.0,M,R,E,E,E,E,E,E,R,E,10.0,10.0,10.0,10.0,10.0,10.0,10.0,10.0,both
390,Lazy Oaks,No,No response,Unknown,Unknown,"9241 Blaine Street, Crown Point, IN 46307",41.450276,-87.426135,21,Unknown,IN5291008,,,,,,,,,,,,,,,,,,,,,,,,,,,,,left_only
391,Leavenworth Water Company,No,No response,Unknown,Unknown,"P.O. Box 7, Leavenworth, IN 47137",38.199787,-86.344144,201,Unknown,IN5213004,,,,,,,,,,,,,,,,,,,,,,,,,,,,,left_only
392,Lebanon Utilities,No,No response,Unknown,Unknown,"401 South Meridian Street, Lebanon, IN 46052",40.044464,-86.467506,6449,Unknown,IN5206003,,,,,,,,,,,,,,,,,,,,,,,,,,,,,left_only
393,Leisure Acres Mobile Home Park,No,No response,Unknown,Unknown,"4955 West Wright Avenue, West Terre Haute, IN 47885",39.553023,-87.494248,30,Unknown,IN5284019,,,,,,,,,,,,,,,,,,,,,,,,,,,,,left_only
394,Leisure Lakes Mobile Home Court,Yes,No response,Unknown,Unknown,"2384 North 200 West, Angola, IN 46703",41.67623,-85.028681,19,Unknown,IN5276025,IN5276025,LEISURE LAKES MOBILE HOME COURT,19.0,,19.0,,,,,,P,P,R,,,,,,,,9.0,,,,,,,,both
395,Leisure Lane Mobile Home Park,No,No response,Unknown,Unknown,"106 East 1st Street P.O. Box 281, North Webster, IN 46555",33.003635,-93.460552,20,Unknown,IN5257026,,,,,,,,,,,,,,,,,,,,,,,,,,,,,left_only
396,Len-Del Mobile Home Court,No,No response,Unknown,Unknown,"14138 Milton Road, Milton, IN 47357",39.7886,-85.142925,45,Unknown,IN5289009,,,,,,,,,,,,,,,,,,,,,,,,,,,,,left_only
397,Lewisville Water Works,Yes,No response,Unknown,Unknown,"104 US-40, Lewisville, IN 47352",39.807019,-85.352445,199,Unknown,IN5233006,IN5233006,LEWISVILLE WATER WORKS,199.0,,,199.0,,,,,M,R,,R,,,,,,,,4.0,,,,,,,both
398,Liberty Farms Mobile Home Park,No,No response,Unknown,Unknown,"76 East U.S. Highway 6, Valparaiso, IN 46383",41.550075,-87.051274,222,Unknown,IN5264017,,,,,,,,,,,,,,,,,,,,,,,,,,,,,left_only
399,Liberty Mobile Home Park,No,No response,Unknown,Unknown,"P.O. Box 212, Fairmount, IN 46928",40.414636,-85.650886,36,Unknown,IN5227007,,,,,,,,,,,,,,,,,,,,,,,,,,,,,left_only
400,Liberty Water,No,No response,Unknown,Unknown,"1092 South Center Street, Plainfield, IN 46168-9307",39.689698,-86.390064,161,Unknown,IN5232030,,,,,,,,,,,,,,,,,,,,,,,,,,,,,left_only
401,Liberty Water Works,Yes,No response,Unknown,Unknown,"P.O. Box 7, Liberty, IN 47353",39.635605,-84.931071,1160,Unknown,IN5281001,IN5281001,LIBERTY WATER WORKS,1160.0,,,1160.0,,,,,M,R,,,,,,,,,,,,,,,,,both
402,Ligonier Water Works,Yes,No response,Unknown,Unknown,"510 Water Street, Ligonier, IN 46767",41.470331,-85.586855,1306,0.0078,IN5257010,IN5257010,LIGONIER WATER WORKS,317.0,,317.0,,,,,,P,R,R,,,,,,,,,,,,,,,,both
403,Linda Ann Mobile Home Park,Yes,No response,Unknown,Unknown,"2382 North 200 West, Angola, IN 46703",41.676229,-85.028681,16,0.17,IN5276024,IN5276024,LINDA ANN MOBILE HOME PARK,16.0,,16.0,,,,,,P,P,R,,,,,,,,9.0,,,,,,,,both
404,Linden Water Department,Yes,No response,Unknown,Unknown,"P.O. Box 352, Linden, IN 47955",40.188094,-86.903896,347,Unknown,IN5254007,IN5254007,LINDEN WATER DEPARTMENT,,,,321.0,,,,,M,M,,R,,,,,,,,10.0,,,,,,,both
405,Linton Municipal Water Utility,No,No response,Unknown,Unknown,"86 South Main Street, Linton, IN 47441",39.03308,-87.166557,3218,Unknown,IN5228005,,,,,,,,,,,,,,,,,,,,,,,,,,,,,left_only
406,Little Eagle Creek Estates,No,No response,Unknown,Unknown,"17640 Eagletown Road, Westfield IN 46074",40.042912,-86.194655,25,Unknown,IN5229017,,,,,,,,,,,,,,,,,,,,,,,,,,,,,left_only
407,L-M-S Conservancy District,Yes,0,0%,Unknown,"1406 Sunnyside Avenue, Aurora, IN 47001-1742",39.086717,-84.916896,2046,0.0028,IN5215007,IN5215007,L-M-S CONSERVANCY DISTRICT,2050.0,0.0,2050.0,0.0,0.0,0.0,0.0,0.0,M,R,,,,,,,,,10.0,10.0,10.0,10.0,10.0,10.0,10.0,10.0,both
408,Logansport Municipal Utility-Well Field,Yes,No response,Unknown,Unknown,"601 East Broadway #101, Logansport, IN 46947",40.754233,-86.362541,7330,0.014,IN5209012,IN5209012,LOGANSPORT MUNICIPAL UTILITY-WELL FIELD,7330.0,,3343.0,3987.0,,,,,M,R,R,R,,,,,R,,10.0,10.0,,,,,10.0,,both
409,Long Beach Water Department,Yes,100,8.85%,Estimated,"2400 Oriole Trail, Long Beach, IN 46360",41.745909,-86.85079,1130,Unknown,IN5246028,IN5246028,LONG BEACH WATER DEPARTMENT,1130.0,100.0,1030.0,0.0,100.0,0.0,0.0,0.0,M,R,R,R,E,R,R,R,R,E,10.0,10.0,10.0,10.0,10.0,10.0,10.0,10.0,both
410,Loogootee Water Works,Yes,No response,Unknown,Unknown,"P.O. Box 276, Loogootee, IN 47553",38.676995,-86.91417,1450,0.0003,IN5251005,IN5251005,LOOGOOTEE WATER WORKS,1450.0,,1440.0,10.0,,,,,P,R,R,E,,,,,R,,8.0,8.0,,,,,8.0,,both
411,Lowell Water Department,Yes,146,4.10%,Estimated,"P.O. Box 157, Lowell, IN 46356",41.291424,-87.42059,3560,0.0053,IN5245029,IN5245029,LOWELL WATER DEPARTMENT,3608.0,146.0,3462.0,,146.0,0.0,,0.0,M,R,E,E,E,E,E,E,E,E,9.0,,9.0,10.0,10.0,10.0,10.0,9.0,both
412,Lyford Water Works,No,No response,Unknown,Unknown,"6826 West Parkewood Road, Rosedale, IN 47874",39.643028,-87.367639,360,Unknown,IN5261002,,,,,,,,,,,,,,,,,,,,,,,,,,,,,left_only
413,Lynn Hill Court & Charles Manor,No,No response,Unknown,Unknown,"East Lynn View Drive, Monticello, IN 47960",40.837294,-86.782426,41,Unknown,IN5291009,,,,,,,,,,,,,,,,,,,,,,,,,,,,,left_only
414,Lynn Water Company,No,No response,Unknown,Unknown,"P.O. Box 65, Lynn, IN 47355",40.049769,-84.939685,509,Unknown,IN5268004,,,,,,,,,,,,,,,,,,,,,,,,,,,,,left_only
415,Lynnville Water Works,No,No response,Unknown,Unknown,"Town Hall 312 Church St. P.O. Box 99, Lynville, IN 47619-0099",38.196159,-87.296675,450,Unknown,IN5287006,,,,,,,,,,,,,,,,,,,,,,,,,,,,,left_only
416,Lyons Water Utility,No,No response,Unknown,Unknown,"P.O. Box 267, Lyons, IN 47443-0267",38.972191,-87.082404,470,Unknown,IN5228006,,,,,,,,,,,,,,,,,,,,,,,,,,,,,left_only
417,Madison State Hospital,Yes,0,0%,Recorded,"711 Green Rd, Madison, IN 47250",38.761359,-85.401483,50,Unknown,IN5239005,IN5239005,MADISON STATE HOSPITAL,51.0,0.0,51.0,0.0,0.0,0.0,0.0,0.0,P,P,R,R,R,R,R,R,R,R,10.0,10.0,10.0,10.0,10.0,10.0,10.0,10.0,both
418,Madison Water Department,Yes,75,1.30%,Estimated,"101 West Main Street, Madison, IN 47250",38.736094,-85.380426,5771,0.0075,IN5239006,IN5239006,MADISON WATER DEPARTMENT,5670.0,75.0,5595.0,0.0,75.0,0.0,0.0,0.0,M,R,E,E,E,E,E,E,R,E,9.0,8.0,5.0,9.0,9.0,7.0,9.0,6.0,both
419,Mallards Pointe Water System,No,No response,Unknown,Unknown,"2505 Chicago Street Suite 4, Valparaiso, IN 46385",41.472465,-87.029705,51,Unknown,IN5264041,,,,,,,,,,,,,,,,,,,,,,,,,,,,,left_only
420,Maple Lane Village Mobile Home Park,Yes,No response,Unknown,Unknown,"2808 US-35, Logansport, IN 46947",40.72847,-86.290949,86,0.0194,IN5209004,IN5209004,MAPLE LANE VILLAGE MOBILE HOME PARK,77.0,,77.0,,,,,,,,R,,,,,,,,,,,,,,,,both
421,Maple Lawn Village,No,No response,Unknown,Unknown,"12948 S. US 31 Lot 51, Kokomo, IN 46901",40.578382,-86.129431,110,Unknown,IN5252013,,,,,,,,,,,,,,,,,,,,,,,,,,,,,left_only
422,Maple Leaf Mobile Home Park,No,No response,Unknown,Unknown,"1863 Lilac Road, Plymouth, IN 46563",41.451709,-86.286356,30,Unknown,IN5250008,,,,,,,,,,,,,,,,,,,,,,,,,,,,,left_only
423,Mapleturn Utilities Inc,No,No response,Unknown,Unknown,"2001 East Mapleturn Road, Martinsville, IN 46151",39.476014,-86.393395,615,Unknown,IN5255004,,,,,,,,,,,,,,,,,,,,,,,,,,,,,left_only
424,Marion City Water Works,No,No response,Unknown,Unknown,"305 East Bond Avenue, Marion, IN 46952",40.579127,-85.658449,10685,Unknown,IN5227014,,,,,,,,,,,,,,,,,,,,,,,,,,,,,left_only
425,Markle Water Utility,No,No response,Unknown,Unknown,"155 West Sparks Street P.O. Box 367, Markle, IN 46770-0367",40.825755,-85.339021,465,Unknown,IN5235006,,,,,,,,,,,,,,,,,,,,,,,,,,,,,left_only
426,Marshall Water Works,Yes,No response,Unknown,Unknown,"P.O. Box 204, Marshall, IN 47859",39.847369,-87.187181,153,0.131,IN5261003,IN5261003,MARSHALL WATER WORKS,165.0,,150.0,15.0,,,,,M,R,E,E,,,,,R,,6.0,6.0,,,,,8.0,,both
427,Martinsville Water Utility,Yes,1200,24.58%,Estimated,"P.O. Box 1415, Martinsville, IN 46151",39.427825,-86.428328,4882,0.0017,IN5255009,IN5255009,MARTINSVILLE WATER UTILITY,4320.0,1200.0,320.0,4000.0,1200.0,0.0,0.0,0.0,P,R,E,E,E,E,E,E,,E,8.0,10.0,8.0,10.0,10.0,10.0,,10.0,both
428,Marysville Otisco Nabb Water Corp,No,No response,Unknown,Unknown,"P.O. Box 86, Otisco, IN 47163-0086",38.540475,-85.668498,2300,Unknown,IN5210006,,,,,,,,,,,,,,,,,,,,,,,,,,,,,left_only
429,Maysville Region Water & Sewer District,No,No response,Unknown,Unknown,"P.O. Box 413, Harlan, IN 46743-0413",41.195998,-84.919682,476,Unknown,IN5202037,,,,,,,,,,,,,,,,,,,,,,,,,,,,,left_only
430,Meadow Acres Mobile Home Park,Yes,0,0%,Recorded,"52387 County Road 113, Elkhart, IN 46514",41.730405,-85.913703,51,Unknown,IN5243012,IN5243012,MEADOW ACRES MOBILE HOME PARK,50.0,0.0,50.0,,0.0,0.0,0.0,0.0,P,P,R,R,R,R,R,R,R,R,10.0,10.0,10.0,10.0,10.0,10.0,10.0,10.0,both
431,Mecks Whispering Pines Inc,Yes,No response,Unknown,Unknown,"340 East Levi Lee Road #98, Warsaw, IN 46580",41.297778,-85.839274,221,Unknown,IN5243033,IN5243033,"MECKS WHISPERING PINES, INC.",221.0,,221.0,,,,,,P,P,R,,,,,,R,,10.0,,,,,,10.0,,both
432,Medaryville Water Company,No,No response,Unknown,Unknown,"409 East Main Street Box 10, Medaryville, IN 47957",41.080515,-86.888483,249,Unknown,IN5266003,,,,,,,,,,,,,,,,,,,,,,,,,,,,,left_only
433,Medora Water Department,Yes,0,0%,Recorded,"P.O. Box 247, Medora, IN 47260",38.824844,-86.170016,369,Unknown,IN5236004,IN5236004,MEDORA WATER DEPARTMENT,330.0,0.0,330.0,0.0,0.0,0.0,0.0,0.0,M,R,R,R,R,R,R,R,R,R,10.0,10.0,10.0,10.0,10.0,10.0,10.0,10.0,both
434,Mentone Water Company,No,No response,Unknown,Unknown,"P.O. Box 562, Mentone, IN 46539-0562",41.173377,-86.034719,400,Unknown,IN5243013,,,,,,,,,,,,,,,,,,,,,,,,,,,,,left_only
435,Merrywood Mobile Home Park,Yes,0,0%,Estimated,"3104 Wooster Rd, Pierceton, IN 46562",41.219641,-85.782231,78,Unknown,IN5243014,IN5243014,MERRYWOOD MOBILE HOME PARK,0.0,0.0,87.0,0.0,0.0,0.0,0.0,0.0,P,P,E,E,E,E,E,E,E,E,5.0,5.0,5.0,5.0,5.0,5.0,5.0,5.0,both
